[
	{
		"estado": "AC",
		"cidade": "Acrelândia",
		"lat": -9.825808,
		"long": -66.897166,
		"capital": false
	},
	{
		"estado": "AC",
		"cidade": "Assis Brasil",
		"lat": -10.9409203,
		"long": -69.5672108,
		"capital": false
	},
	{
		"estado": "AC",
		"cidade": "Brasiléia",
		"lat": -11.0012764,
		"long": -68.7487974,
		"capital": false
	},
	{
		"estado": "AC",
		"cidade": "Bujari",
		"lat": -9.8309656,
		"long": -67.9520886,
		"capital": false
	},
	{
		"estado": "AC",
		"cidade": "Capixaba",
		"lat": -10.5729683,
		"long": -67.6760894,
		"capital": false
	},
	{
		"estado": "AC",
		"cidade": "Cruzeiro do Sul",
		"lat": -7.6307956,
		"long": -72.6703869,
		"capital": false
	},
	{
		"estado": "AC",
		"cidade": "Epitaciolândia",
		"lat": -11.0289439,
		"long": -68.7411519,
		"capital": false
	},
	{
		"estado": "AC",
		"cidade": "Feijó",
		"lat": -8.1639128,
		"long": -70.3541781,
		"capital": false
	},
	{
		"estado": "AC",
		"cidade": "Jordão",
		"lat": -9.4338167,
		"long": -71.8843997,
		"capital": false
	},
	{
		"estado": "AC",
		"cidade": "Mâncio Lima",
		"lat": -7.6137775,
		"long": -72.8964167,
		"capital": false
	},
	{
		"estado": "AC",
		"cidade": "Manoel Urbano",
		"lat": -8.8389428,
		"long": -69.2601292,
		"capital": false
	},
	{
		"estado": "AC",
		"cidade": "Marechal Thaumaturgo",
		"lat": -8.9407511,
		"long": -72.79151,
		"capital": false
	},
	{
		"estado": "AC",
		"cidade": "Plácido de Castro",
		"lat": -10.2759758,
		"long": -67.1500664,
		"capital": false
	},
	{
		"estado": "AC",
		"cidade": "Porto Acre",
		"lat": -9.5879722,
		"long": -67.53307,
		"capital": false
	},
	{
		"estado": "AC",
		"cidade": "Porto Walter",
		"lat": -8.2687722,
		"long": -72.7444458,
		"capital": false
	},
	{
		"estado": "AC",
		"cidade": "Rio Branco",
		"lat": -9.976536213,
		"long": -67.82207776,
		"capital": true
	},
	{
		"estado": "AC",
		"cidade": "Rodrigues Alves",
		"lat": -7.7417936,
		"long": -72.6473894,
		"capital": false
	},
	{
		"estado": "AC",
		"cidade": "Santa Rosa do Purus",
		"lat": -9.4338948,
		"long": -70.4909019,
		"capital": false
	},
	{
		"estado": "AC",
		"cidade": "Sena Madureira",
		"lat": -9.0659556,
		"long": -68.6571058,
		"capital": false
	},
	{
		"estado": "AC",
		"cidade": "Senador Guiomard",
		"lat": -10.1509675,
		"long": -67.7360856,
		"capital": false
	},
	{
		"estado": "AC",
		"cidade": "Tarauacá",
		"lat": -8.1608981,
		"long": -70.7662092,
		"capital": false
	},
	{
		"estado": "AC",
		"cidade": "Xapuri",
		"lat": -10.6519528,
		"long": -68.5041297,
		"capital": false
	},
	{
		"estado": "AL",
		"cidade": "Água Branca",
		"lat": -9.285143,
		"long": -37.847545,
		"capital": false
	},
	{
		"estado": "AL",
		"cidade": "Anadia",
		"lat": -9.684886,
		"long": -36.307783,
		"capital": false
	},
	{
		"estado": "AL",
		"cidade": "Arapiraca",
		"lat": -9.7549,
		"long": -36.6616,
		"capital": false
	},
	{
		"estado": "AL",
		"cidade": "Atalaia",
		"lat": -9.511898,
		"long": -36.008552,
		"capital": false
	},
	{
		"estado": "AL",
		"cidade": "Barra de Santo Antônio",
		"lat": -9.402297,
		"long": -35.510083,
		"capital": false
	},
	{
		"estado": "AL",
		"cidade": "Barra de São Miguel",
		"lat": -9.823274,
		"long": -35.885578,
		"capital": false
	},
	{
		"estado": "AL",
		"cidade": "Batalha",
		"lat": -9.674195,
		"long": -37.133014,
		"capital": false
	},
	{
		"estado": "AL",
		"cidade": "Belém",
		"lat": -9.570472,
		"long": -36.490399,
		"capital": false
	},
	{
		"estado": "AL",
		"cidade": "Belo Monte",
		"lat": -9.822718,
		"long": -37.277014,
		"capital": false
	},
	{
		"estado": "AL",
		"cidade": "Boca da Mata",
		"lat": -9.643082,
		"long": -36.212498,
		"capital": false
	},
	{
		"estado": "AL",
		"cidade": "Branquinha",
		"lat": -9.2478057,
		"long": -36.0152009,
		"capital": false
	},
	{
		"estado": "AL",
		"cidade": "Cacimbinhas",
		"lat": -9.401212,
		"long": -36.991082,
		"capital": false
	},
	{
		"estado": "AL",
		"cidade": "Cajueiro",
		"lat": -9.399402,
		"long": -36.155937,
		"capital": false
	},
	{
		"estado": "AL",
		"cidade": "Campestre",
		"lat": -8.847228,
		"long": -35.56847,
		"capital": false
	},
	{
		"estado": "AL",
		"cidade": "Campo Alegre",
		"lat": -9.782967,
		"long": -36.3527835,
		"capital": false
	},
	{
		"estado": "AL",
		"cidade": "Campo Grande",
		"lat": -9.9554162,
		"long": -36.7926146,
		"capital": false
	},
	{
		"estado": "AL",
		"cidade": "Canapi",
		"lat": -9.119319,
		"long": -37.5967,
		"capital": false
	},
	{
		"estado": "AL",
		"cidade": "Capela",
		"lat": -9.415041,
		"long": -36.082583,
		"capital": false
	},
	{
		"estado": "AL",
		"cidade": "Carneiros",
		"lat": -9.484762,
		"long": -37.377303,
		"capital": false
	},
	{
		"estado": "AL",
		"cidade": "Chã Preta",
		"lat": -9.255605,
		"long": -36.298334,
		"capital": false
	},
	{
		"estado": "AL",
		"cidade": "Coité do Nóia",
		"lat": -9.633484,
		"long": -36.584493,
		"capital": false
	},
	{
		"estado": "AL",
		"cidade": "Colônia Leopoldina",
		"lat": -8.918058,
		"long": -35.721414,
		"capital": false
	},
	{
		"estado": "AL",
		"cidade": "Coqueiro Seco",
		"lat": -9.637147,
		"long": -35.799377,
		"capital": false
	},
	{
		"estado": "AL",
		"cidade": "Coruripe",
		"lat": -10.127632,
		"long": -36.171724,
		"capital": false
	},
	{
		"estado": "AL",
		"cidade": "Craíbas",
		"lat": -9.617798,
		"long": -36.769726,
		"capital": false
	},
	{
		"estado": "AL",
		"cidade": "Delmiro Gouveia",
		"lat": -9.385336,
		"long": -37.998676,
		"capital": false
	},
	{
		"estado": "AL",
		"cidade": "Dois Riachos",
		"lat": -9.384645,
		"long": -37.096502,
		"capital": false
	},
	{
		"estado": "AL",
		"cidade": "Estrela de Alagoas",
		"lat": -9.390894,
		"long": -36.764407,
		"capital": false
	},
	{
		"estado": "AL",
		"cidade": "Feira Grande",
		"lat": -9.898586,
		"long": -36.681521,
		"capital": false
	},
	{
		"estado": "AL",
		"cidade": "Feliz Deserto",
		"lat": -10.293491,
		"long": -36.302788,
		"capital": false
	},
	{
		"estado": "AL",
		"cidade": "Flexeiras",
		"lat": -9.272807,
		"long": -35.713933,
		"capital": false
	},
	{
		"estado": "AL",
		"cidade": "Girau do Ponciano",
		"lat": -9.884041,
		"long": -36.831592,
		"capital": false
	},
	{
		"estado": "AL",
		"cidade": "Ibateguara",
		"lat": -8.978232,
		"long": -35.937325,
		"capital": false
	},
	{
		"estado": "AL",
		"cidade": "Igaci",
		"lat": -9.5631648,
		"long": -36.6785896,
		"capital": false
	},
	{
		"estado": "AL",
		"cidade": "Igreja Nova",
		"lat": 0,
		"long": 0,
		"capital": false
	},
	{
		"estado": "AL",
		"cidade": "Inhapi",
		"lat": -9.225936,
		"long": -37.750871,
		"capital": false
	},
	{
		"estado": "AL",
		"cidade": "Jacaré dos Homens",
		"lat": -9.635446,
		"long": -37.207636,
		"capital": false
	},
	{
		"estado": "AL",
		"cidade": "Jacuípe",
		"lat": 0,
		"long": 0,
		"capital": false
	},
	{
		"estado": "AL",
		"cidade": "Japaratinga",
		"lat": -9.087464,
		"long": -35.263403,
		"capital": false
	},
	{
		"estado": "AL",
		"cidade": "Jaramataia",
		"lat": -9.662243,
		"long": -37.004558,
		"capital": false
	},
	{
		"estado": "AL",
		"cidade": "Jequiá da Praia",
		"lat": -10.013268,
		"long": -36.01423,
		"capital": false
	},
	{
		"estado": "AL",
		"cidade": "Joaquim Gomes",
		"lat": -9.1372894,
		"long": -35.7518862,
		"capital": false
	},
	{
		"estado": "AL",
		"cidade": "Jundiá",
		"lat": 0,
		"long": 0,
		"capital": false
	},
	{
		"estado": "AL",
		"cidade": "Junqueiro",
		"lat": -9.906961,
		"long": -36.480346,
		"capital": false
	},
	{
		"estado": "AL",
		"cidade": "Lagoa da Canoa",
		"lat": -9.832909,
		"long": -36.741257,
		"capital": false
	},
	{
		"estado": "AL",
		"cidade": "Limoeiro de Anadia",
		"lat": -9.740983,
		"long": -36.512097,
		"capital": false
	},
	{
		"estado": "AL",
		"cidade": "Maceió",
		"lat": -9.6476843,
		"long": -35.7339264,
		"capital": true
	},
	{
		"estado": "AL",
		"cidade": "Major Isidoro",
		"lat": -9.530086,
		"long": -36.992006,
		"capital": false
	},
	{
		"estado": "AL",
		"cidade": "Mar Vermelho",
		"lat": -9.447393,
		"long": -36.388076,
		"capital": false
	},
	{
		"estado": "AL",
		"cidade": "Maragogi",
		"lat": -9.007443,
		"long": -35.226692,
		"capital": false
	},
	{
		"estado": "AL",
		"cidade": "Maravilha",
		"lat": 0,
		"long": 0,
		"capital": false
	},
	{
		"estado": "AL",
		"cidade": "Marechal Deodoro",
		"lat": -9.709715,
		"long": -35.896731,
		"capital": false
	},
	{
		"estado": "AL",
		"cidade": "Maribondo",
		"lat": -9.583528,
		"long": -36.304488,
		"capital": false
	},
	{
		"estado": "AL",
		"cidade": "Mata Grande",
		"lat": -9.118243,
		"long": -37.732298,
		"capital": false
	},
	{
		"estado": "AL",
		"cidade": "Matriz de Camaragibe",
		"lat": -9.154373,
		"long": -35.524302,
		"capital": false
	},
	{
		"estado": "AL",
		"cidade": "Messias",
		"lat": -9.393843,
		"long": -35.839182,
		"capital": false
	},
	{
		"estado": "AL",
		"cidade": "Minador do Negrão",
		"lat": -9.312358,
		"long": -36.869553,
		"capital": false
	},
	{
		"estado": "AL",
		"cidade": "Monteirópolis",
		"lat": -9.603569,
		"long": -37.250463,
		"capital": false
	},
	{
		"estado": "AL",
		"cidade": "Murici",
		"lat": -9.306823,
		"long": -35.942798,
		"capital": false
	},
	{
		"estado": "AL",
		"cidade": "Novo Lino",
		"lat": -8.941905,
		"long": -35.664001,
		"capital": false
	},
	{
		"estado": "AL",
		"cidade": "Olho d'Água das Flores",
		"lat": 0,
		"long": 0,
		"capital": false
	},
	{
		"estado": "AL",
		"cidade": "Olho d'Água do Casado",
		"lat": 0,
		"long": 0,
		"capital": false
	},
	{
		"estado": "AL",
		"cidade": "Olho d'Água Grande",
		"lat": 0,
		"long": 0,
		"capital": false
	},
	{
		"estado": "AL",
		"cidade": "Olivença",
		"lat": 0,
		"long": 0,
		"capital": false
	},
	{
		"estado": "AL",
		"cidade": "Ouro Branco",
		"lat": 0,
		"long": 0,
		"capital": false
	},
	{
		"estado": "AL",
		"cidade": "Palestina",
		"lat": 0,
		"long": 0,
		"capital": false
	},
	{
		"estado": "AL",
		"cidade": "Palmeira dos Índios",
		"lat": -9.405681,
		"long": -36.632812,
		"capital": false
	},
	{
		"estado": "AL",
		"cidade": "Pão de Açúcar",
		"lat": -9.740325,
		"long": -37.440336,
		"capital": false
	},
	{
		"estado": "AL",
		"cidade": "Pariconha",
		"lat": -9.256342,
		"long": -37.998751,
		"capital": false
	},
	{
		"estado": "AL",
		"cidade": "Paripueira",
		"lat": 0,
		"long": 0,
		"capital": false
	},
	{
		"estado": "AL",
		"cidade": "Passo de Camaragibe",
		"lat": -9.24511,
		"long": -35.47449,
		"capital": false
	},
	{
		"estado": "AL",
		"cidade": "Paulo Jacinto",
		"lat": 0,
		"long": 0,
		"capital": false
	},
	{
		"estado": "AL",
		"cidade": "Penedo",
		"lat": 0,
		"long": 0,
		"capital": false
	},
	{
		"estado": "AL",
		"cidade": "Piaçabuçu",
		"lat": -10.399074,
		"long": -36.416389,
		"capital": false
	},
	{
		"estado": "AL",
		"cidade": "Pilar",
		"lat": 0,
		"long": 0,
		"capital": false
	},
	{
		"estado": "AL",
		"cidade": "Pindoba",
		"lat": -9.473822,
		"long": -36.291829,
		"capital": false
	},
	{
		"estado": "AL",
		"cidade": "Piranhas",
		"lat": 0,
		"long": 0,
		"capital": false
	},
	{
		"estado": "AL",
		"cidade": "Poço das Trincheiras",
		"lat": -9.307417,
		"long": -37.288932,
		"capital": false
	},
	{
		"estado": "AL",
		"cidade": "Porto Calvo",
		"lat": -9.051948,
		"long": -35.398653,
		"capital": false
	},
	{
		"estado": "AL",
		"cidade": "Porto de Pedras",
		"lat": -9.160065,
		"long": -35.304914,
		"capital": false
	},
	{
		"estado": "AL",
		"cidade": "Porto Real do Colégio",
		"lat": -10.18489,
		"long": -36.837551,
		"capital": false
	},
	{
		"estado": "AL",
		"cidade": "Quebrangulo",
		"lat": -9.3217611,
		"long": -36.4735837,
		"capital": false
	},
	{
		"estado": "AL",
		"cidade": "Rio Largo",
		"lat": -9.477829,
		"long": -35.839435,
		"capital": false
	},
	{
		"estado": "AL",
		"cidade": "Roteiro",
		"lat": -9.835029,
		"long": -35.978247,
		"capital": false
	},
	{
		"estado": "AL",
		"cidade": "Santa Luzia do Norte",
		"lat": 0,
		"long": 0,
		"capital": false
	},
	{
		"estado": "AL",
		"cidade": "Santana do Ipanema",
		"lat": -9.369989,
		"long": -37.248018,
		"capital": false
	},
	{
		"estado": "AL",
		"cidade": "Santana do Mundaú",
		"lat": -9.171413,
		"long": -36.217608,
		"capital": false
	},
	{
		"estado": "AL",
		"cidade": "São Brás",
		"lat": -10.120734,
		"long": -36.896529,
		"capital": false
	},
	{
		"estado": "AL",
		"cidade": "São José da Laje",
		"lat": -9.0128881,
		"long": -36.0515113,
		"capital": false
	},
	{
		"estado": "AL",
		"cidade": "São José da Tapera",
		"lat": -9.557684,
		"long": -37.383125,
		"capital": false
	},
	{
		"estado": "AL",
		"cidade": "São Luís do Quitunde",
		"lat": -9.31816,
		"long": -35.560553,
		"capital": false
	},
	{
		"estado": "AL",
		"cidade": "São Miguel dos Campos",
		"lat": -9.78301,
		"long": -36.097142,
		"capital": false
	},
	{
		"estado": "AL",
		"cidade": "São Miguel dos Milagres",
		"lat": -9.264925,
		"long": -35.376253,
		"capital": false
	},
	{
		"estado": "AL",
		"cidade": "São Sebastião",
		"lat": 0,
		"long": 0,
		"capital": false
	},
	{
		"estado": "AL",
		"cidade": "Satuba",
		"lat": -9.569113,
		"long": -35.822697,
		"capital": false
	},
	{
		"estado": "AL",
		"cidade": "Senador Rui Palmeira",
		"lat": -9.469865,
		"long": -37.457606,
		"capital": false
	},
	{
		"estado": "AL",
		"cidade": "Tanque d'Arca",
		"lat": 0,
		"long": 0,
		"capital": false
	},
	{
		"estado": "AL",
		"cidade": "Taquarana",
		"lat": -9.64529,
		"long": -36.492844,
		"capital": false
	},
	{
		"estado": "AL",
		"cidade": "Teotônio Vilela",
		"lat": -9.9081255,
		"long": -36.3565601,
		"capital": false
	},
	{
		"estado": "AL",
		"cidade": "Traipu",
		"lat": -9.962625,
		"long": -37.007119,
		"capital": false
	},
	{
		"estado": "AL",
		"cidade": "União dos Palmares",
		"lat": -9.1576807,
		"long": -36.0342251,
		"capital": false
	},
	{
		"estado": "AL",
		"cidade": "Viçosa",
		"lat": 0,
		"long": 0,
		"capital": false
	},
	{
		"estado": "AM",
		"cidade": "Alvarães",
		"lat": -3.22727,
		"long": -64.800654,
		"capital": false
	},
	{
		"estado": "AM",
		"cidade": "Amaturá",
		"lat": -3.374547,
		"long": -68.200456,
		"capital": false
	},
	{
		"estado": "AM",
		"cidade": "Anamã",
		"lat": -3.566966,
		"long": -61.396337,
		"capital": false
	},
	{
		"estado": "AM",
		"cidade": "Anori",
		"lat": -3.748452,
		"long": -61.658576,
		"capital": false
	},
	{
		"estado": "AM",
		"cidade": "Apuí",
		"lat": 0,
		"long": 0,
		"capital": false
	},
	{
		"estado": "AM",
		"cidade": "Atalaia do Norte",
		"lat": -4.370551,
		"long": -70.1967,
		"capital": false
	},
	{
		"estado": "AM",
		"cidade": "Autazes",
		"lat": -3.5833283,
		"long": -59.1301518,
		"capital": false
	},
	{
		"estado": "AM",
		"cidade": "Barcelos",
		"lat": 0,
		"long": 0,
		"capital": false
	},
	{
		"estado": "AM",
		"cidade": "Barreirinha",
		"lat": -2.798863,
		"long": -57.067897,
		"capital": false
	},
	{
		"estado": "AM",
		"cidade": "Benjamin Constant",
		"lat": 0,
		"long": 0,
		"capital": false
	},
	{
		"estado": "AM",
		"cidade": "Beruri",
		"lat": -3.898736,
		"long": -61.36162,
		"capital": false
	},
	{
		"estado": "AM",
		"cidade": "Boa Vista do Ramos",
		"lat": -2.974087,
		"long": -57.587333,
		"capital": false
	},
	{
		"estado": "AM",
		"cidade": "Boca do Acre",
		"lat": 0,
		"long": 0,
		"capital": false
	},
	{
		"estado": "AM",
		"cidade": "Borba",
		"lat": -4.391539,
		"long": -59.58738,
		"capital": false
	},
	{
		"estado": "AM",
		"cidade": "Caapiranga",
		"lat": -3.315372,
		"long": -61.220557,
		"capital": false
	},
	{
		"estado": "AM",
		"cidade": "Canutama",
		"lat": -6.5327253,
		"long": -64.3856284,
		"capital": false
	},
	{
		"estado": "AM",
		"cidade": "Carauari",
		"lat": -4.874248,
		"long": -66.8927101,
		"capital": false
	},
	{
		"estado": "AM",
		"cidade": "Careiro",
		"lat": -3.8185277,
		"long": -60.3616505,
		"capital": false
	},
	{
		"estado": "AM",
		"cidade": "Careiro da Várzea",
		"lat": -3.196979,
		"long": -59.79639,
		"capital": false
	},
	{
		"estado": "AM",
		"cidade": "Coari",
		"lat": -4.0885957,
		"long": -63.1431166,
		"capital": false
	},
	{
		"estado": "AM",
		"cidade": "Codajás",
		"lat": -3.830528,
		"long": -62.065787,
		"capital": false
	},
	{
		"estado": "AM",
		"cidade": "Eirunepé",
		"lat": -6.6567654,
		"long": -69.866161,
		"capital": false
	},
	{
		"estado": "AM",
		"cidade": "Envira",
		"lat": -7.437889,
		"long": -70.028143,
		"capital": false
	},
	{
		"estado": "AM",
		"cidade": "Fonte Boa",
		"lat": -2.5147464,
		"long": -66.0948424,
		"capital": false
	},
	{
		"estado": "AM",
		"cidade": "Guajará",
		"lat": -7.537971,
		"long": -72.590713,
		"capital": false
	},
	{
		"estado": "AM",
		"cidade": "Humaitá",
		"lat": 0,
		"long": 0,
		"capital": false
	},
	{
		"estado": "AM",
		"cidade": "Ipixuna",
		"lat": 0,
		"long": 0,
		"capital": false
	},
	{
		"estado": "AM",
		"cidade": "Iranduba",
		"lat": -3.274792,
		"long": -60.189953,
		"capital": false
	},
	{
		"estado": "AM",
		"cidade": "Itacoatiara",
		"lat": 0,
		"long": 0,
		"capital": false
	},
	{
		"estado": "AM",
		"cidade": "Itamarati",
		"lat": 0,
		"long": 0,
		"capital": false
	},
	{
		"estado": "AM",
		"cidade": "Itapiranga",
		"lat": 0,
		"long": 0,
		"capital": false
	},
	{
		"estado": "AM",
		"cidade": "Japurá",
		"lat": 0,
		"long": 0,
		"capital": false
	},
	{
		"estado": "AM",
		"cidade": "Juruá",
		"lat": -3.484384,
		"long": -66.071795,
		"capital": false
	},
	{
		"estado": "AM",
		"cidade": "Jutaí",
		"lat": 0,
		"long": 0,
		"capital": false
	},
	{
		"estado": "AM",
		"cidade": "Lábrea",
		"lat": -7.2613683,
		"long": -64.7924505,
		"capital": false
	},
	{
		"estado": "AM",
		"cidade": "Manacapuru",
		"lat": -3.3000514,
		"long": -60.6207425,
		"capital": false
	},
	{
		"estado": "AM",
		"cidade": "Manaquiri",
		"lat": -3.440784,
		"long": -60.461239,
		"capital": false
	},
	{
		"estado": "AM",
		"cidade": "Manaus",
		"lat": -3.133105484,
		"long": -59.9856354,
		"capital": true
	},
	{
		"estado": "AM",
		"cidade": "Manicoré",
		"lat": -5.804618,
		"long": -61.289483,
		"capital": false
	},
	{
		"estado": "AM",
		"cidade": "Maraã",
		"lat": -1.853129,
		"long": -65.572995,
		"capital": false
	},
	{
		"estado": "AM",
		"cidade": "Maués",
		"lat": -3.3838381,
		"long": -57.7186814,
		"capital": false
	},
	{
		"estado": "AM",
		"cidade": "Nhamundá",
		"lat": -2.191642,
		"long": -56.715681,
		"capital": false
	},
	{
		"estado": "AM",
		"cidade": "Nova Olinda do Norte",
		"lat": -3.8926889,
		"long": -59.0953046,
		"capital": false
	},
	{
		"estado": "AM",
		"cidade": "Novo Airão",
		"lat": -2.636371,
		"long": -60.943404,
		"capital": false
	},
	{
		"estado": "AM",
		"cidade": "Novo Aripuanã",
		"lat": -5.125929,
		"long": -60.373179,
		"capital": false
	},
	{
		"estado": "AM",
		"cidade": "Parintins",
		"lat": -2.627982,
		"long": -56.735922,
		"capital": false
	},
	{
		"estado": "AM",
		"cidade": "Pauini",
		"lat": -7.7122214,
		"long": -66.9998441,
		"capital": false
	},
	{
		"estado": "AM",
		"cidade": "Presidente Figueiredo",
		"lat": -2.029813,
		"long": -60.02338,
		"capital": false
	},
	{
		"estado": "AM",
		"cidade": "Rio Preto da Eva",
		"lat": -2.704497,
		"long": -59.685793,
		"capital": false
	},
	{
		"estado": "AM",
		"cidade": "Santa Isabel do Rio Negro",
		"lat": -0.410824,
		"long": -65.009205,
		"capital": false
	},
	{
		"estado": "AM",
		"cidade": "Santo Antônio do Içá",
		"lat": 0,
		"long": 0,
		"capital": false
	},
	{
		"estado": "AM",
		"cidade": "São Gabriel da Cachoeira",
		"lat": -0.11909,
		"long": -67.084042,
		"capital": false
	},
	{
		"estado": "AM",
		"cidade": "São Paulo de Olivença",
		"lat": -3.472919,
		"long": -68.964581,
		"capital": false
	},
	{
		"estado": "AM",
		"cidade": "São Sebastião do Uatumã",
		"lat": -2.559147,
		"long": -57.873049,
		"capital": false
	},
	{
		"estado": "AM",
		"cidade": "Silves",
		"lat": -2.81748,
		"long": -58.248031,
		"capital": false
	},
	{
		"estado": "AM",
		"cidade": "Tabatinga",
		"lat": 0,
		"long": 0,
		"capital": false
	},
	{
		"estado": "AM",
		"cidade": "Tapauá",
		"lat": -5.6232283,
		"long": -63.1879157,
		"capital": false
	},
	{
		"estado": "AM",
		"cidade": "Tefé",
		"lat": 0,
		"long": 0,
		"capital": false
	},
	{
		"estado": "AM",
		"cidade": "Tonantins",
		"lat": -2.865825,
		"long": -67.791904,
		"capital": false
	},
	{
		"estado": "AM",
		"cidade": "Uarini",
		"lat": -2.996087,
		"long": -65.113298,
		"capital": false
	},
	{
		"estado": "AM",
		"cidade": "Urucará",
		"lat": -2.529364,
		"long": -57.753797,
		"capital": false
	},
	{
		"estado": "AM",
		"cidade": "Urucurituba",
		"lat": -3.128412,
		"long": -58.149637,
		"capital": false
	},
	{
		"estado": "AP",
		"cidade": "Amapá",
		"lat": 0,
		"long": 0,
		"capital": false
	},
	{
		"estado": "AP",
		"cidade": "Calçoene",
		"lat": 2498,
		"long": -50949,
		"capital": false
	},
	{
		"estado": "AP",
		"cidade": "Cutias",
		"lat": 0.9860003,
		"long": -50802,
		"capital": false
	},
	{
		"estado": "AP",
		"cidade": "Ferreira Gomes",
		"lat": 0.8579992,
		"long": -51.18,
		"capital": false
	},
	{
		"estado": "AP",
		"cidade": "Itaubal",
		"lat": 0,
		"long": 0,
		"capital": false
	},
	{
		"estado": "AP",
		"cidade": "Laranjal do Jari",
		"lat": 0,
		"long": 0,
		"capital": false
	},
	{
		"estado": "AP",
		"cidade": "Macapá",
		"lat": 0.0456321,
		"long": -51.0632732,
		"capital": true
	},
	{
		"estado": "AP",
		"cidade": "Mazagão",
		"lat": -0.1149997,
		"long": -51.2890003,
		"capital": false
	},
	{
		"estado": "AP",
		"cidade": "Oiapoque",
		"lat": 3843,
		"long": -51835,
		"capital": false
	},
	{
		"estado": "AP",
		"cidade": "Pedra Branca do Amapari",
		"lat": 778,
		"long": -51.9440003,
		"capital": false
	},
	{
		"estado": "AP",
		"cidade": "Porto Grande",
		"lat": 0.7130003,
		"long": -51413,
		"capital": false
	},
	{
		"estado": "AP",
		"cidade": "Pracuúba",
		"lat": 0,
		"long": 0,
		"capital": false
	},
	{
		"estado": "AP",
		"cidade": "Santana",
		"lat": -0.055426,
		"long": -51.1767672,
		"capital": false
	},
	{
		"estado": "AP",
		"cidade": "Serra do Navio",
		"lat": 896,
		"long": -52.0020003,
		"capital": false
	},
	{
		"estado": "AP",
		"cidade": "Tartarugalzinho",
		"lat": 0,
		"long": 0,
		"capital": false
	},
	{
		"estado": "AP",
		"cidade": "Vitória do Jari",
		"lat": 0,
		"long": 0,
		"capital": false
	},
	{
		"estado": "BA",
		"cidade": "Abaíra",
		"lat": -13.24883,
		"long": -41.661869,
		"capital": false
	},
	{
		"estado": "BA",
		"cidade": "Abaré",
		"lat": -8.720734,
		"long": -39.116178,
		"capital": false
	},
	{
		"estado": "BA",
		"cidade": "Acajutiba",
		"lat": -11.657522,
		"long": -38.019737,
		"capital": false
	},
	{
		"estado": "BA",
		"cidade": "Adustina",
		"lat": -10.54369,
		"long": -38.111265,
		"capital": false
	},
	{
		"estado": "BA",
		"cidade": "Água Fria",
		"lat": 0,
		"long": 0,
		"capital": false
	},
	{
		"estado": "BA",
		"cidade": "Aiquara",
		"lat": -14.126918,
		"long": -39.893653,
		"capital": false
	},
	{
		"estado": "BA",
		"cidade": "Alagoinhas",
		"lat": 0,
		"long": 0,
		"capital": false
	},
	{
		"estado": "BA",
		"cidade": "Alcobaça",
		"lat": -17.519468,
		"long": -39.203609,
		"capital": false
	},
	{
		"estado": "BA",
		"cidade": "Almadina",
		"lat": -14.708869,
		"long": -39.641491,
		"capital": false
	},
	{
		"estado": "BA",
		"cidade": "Amargosa",
		"lat": -13.021462,
		"long": -39.601966,
		"capital": false
	},
	{
		"estado": "BA",
		"cidade": "Amélia Rodrigues",
		"lat": -12.391429,
		"long": -38.756289,
		"capital": false
	},
	{
		"estado": "BA",
		"cidade": "América Dourada",
		"lat": -11.442938,
		"long": -41.439007,
		"capital": false
	},
	{
		"estado": "BA",
		"cidade": "Anagé",
		"lat": -14.61512,
		"long": -41.135569,
		"capital": false
	},
	{
		"estado": "BA",
		"cidade": "Andaraí",
		"lat": 0,
		"long": 0,
		"capital": false
	},
	{
		"estado": "BA",
		"cidade": "Andorinha",
		"lat": -10.348214,
		"long": -39.839142,
		"capital": false
	},
	{
		"estado": "BA",
		"cidade": "Angical",
		"lat": 0,
		"long": 0,
		"capital": false
	},
	{
		"estado": "BA",
		"cidade": "Anguera",
		"lat": -12.146157,
		"long": -39.246186,
		"capital": false
	},
	{
		"estado": "BA",
		"cidade": "Antas",
		"lat": -10.385621,
		"long": -38.340118,
		"capital": false
	},
	{
		"estado": "BA",
		"cidade": "Antônio Cardoso",
		"lat": -12.433493,
		"long": -39.117555,
		"capital": false
	},
	{
		"estado": "BA",
		"cidade": "Antônio Gonçalves",
		"lat": -10.576686,
		"long": -40.278489,
		"capital": false
	},
	{
		"estado": "BA",
		"cidade": "Aporá",
		"lat": -11.657708,
		"long": -38.081418,
		"capital": false
	},
	{
		"estado": "BA",
		"cidade": "Apuarema",
		"lat": -13.854241,
		"long": -39.750148,
		"capital": false
	},
	{
		"estado": "BA",
		"cidade": "Araças",
		"lat": 0,
		"long": 0,
		"capital": false
	},
	{
		"estado": "BA",
		"cidade": "Aracatu",
		"lat": -14.427986,
		"long": -41.464783,
		"capital": false
	},
	{
		"estado": "BA",
		"cidade": "Araci",
		"lat": -11.325316,
		"long": -38.958385,
		"capital": false
	},
	{
		"estado": "BA",
		"cidade": "Aramari",
		"lat": -12.088399,
		"long": -38.496937,
		"capital": false
	},
	{
		"estado": "BA",
		"cidade": "Arataca",
		"lat": -15.265099,
		"long": -39.419017,
		"capital": false
	},
	{
		"estado": "BA",
		"cidade": "Aratuípe",
		"lat": -13.071595,
		"long": -39.003763,
		"capital": false
	},
	{
		"estado": "BA",
		"cidade": "Aurelino Leal",
		"lat": 0,
		"long": 0,
		"capital": false
	},
	{
		"estado": "BA",
		"cidade": "Baianópolis",
		"lat": 0,
		"long": 0,
		"capital": false
	},
	{
		"estado": "BA",
		"cidade": "Baixa Grande",
		"lat": 0,
		"long": 0,
		"capital": false
	},
	{
		"estado": "BA",
		"cidade": "Banzaê",
		"lat": -10.578784,
		"long": -38.621243,
		"capital": false
	},
	{
		"estado": "BA",
		"cidade": "Barra",
		"lat": 0,
		"long": 0,
		"capital": false
	},
	{
		"estado": "BA",
		"cidade": "Barra da Estiva",
		"lat": -13.623699,
		"long": -41.334697,
		"capital": false
	},
	{
		"estado": "BA",
		"cidade": "Barra do Choça",
		"lat": -14.8663377,
		"long": -40.5803746,
		"capital": false
	},
	{
		"estado": "BA",
		"cidade": "Barra do Mendes",
		"lat": -11.802898,
		"long": -42.094698,
		"capital": false
	},
	{
		"estado": "BA",
		"cidade": "Barra do Rocha",
		"lat": -14.199994,
		"long": -39.599098,
		"capital": false
	},
	{
		"estado": "BA",
		"cidade": "Barreiras",
		"lat": -12.1439,
		"long": -44.9972,
		"capital": false
	},
	{
		"estado": "BA",
		"cidade": "Barro Alto",
		"lat": 0,
		"long": 0,
		"capital": false
	},
	{
		"estado": "BA",
		"cidade": "Barro Preto",
		"lat": 0,
		"long": 0,
		"capital": false
	},
	{
		"estado": "BA",
		"cidade": "Barrocas",
		"lat": -11.529978,
		"long": -39.078727,
		"capital": false
	},
	{
		"estado": "BA",
		"cidade": "Belmonte",
		"lat": 0,
		"long": 0,
		"capital": false
	},
	{
		"estado": "BA",
		"cidade": "Belo Campo",
		"lat": 0,
		"long": 0,
		"capital": false
	},
	{
		"estado": "BA",
		"cidade": "Biritinga",
		"lat": -11.607156,
		"long": -38.805055,
		"capital": false
	},
	{
		"estado": "BA",
		"cidade": "Boa Nova",
		"lat": -14.359754,
		"long": -40.206444,
		"capital": false
	},
	{
		"estado": "BA",
		"cidade": "Boa Vista do Tupim",
		"lat": -12.649774,
		"long": -40.606376,
		"capital": false
	},
	{
		"estado": "BA",
		"cidade": "Bom Jesus da Lapa",
		"lat": -13.250571,
		"long": -43.410754,
		"capital": false
	},
	{
		"estado": "BA",
		"cidade": "Bom Jesus da Serra",
		"lat": -14.366312,
		"long": -40.512556,
		"capital": false
	},
	{
		"estado": "BA",
		"cidade": "Boninal",
		"lat": -12.706887,
		"long": -41.828604,
		"capital": false
	},
	{
		"estado": "BA",
		"cidade": "Bonito",
		"lat": 0,
		"long": 0,
		"capital": false
	},
	{
		"estado": "BA",
		"cidade": "Boquira",
		"lat": -12.820536,
		"long": -42.732354,
		"capital": false
	},
	{
		"estado": "BA",
		"cidade": "Botuporã",
		"lat": -13.377235,
		"long": -42.516301,
		"capital": false
	},
	{
		"estado": "BA",
		"cidade": "Brejões",
		"lat": -13.103948,
		"long": -39.798797,
		"capital": false
	},
	{
		"estado": "BA",
		"cidade": "Brejolândia",
		"lat": -12.481547,
		"long": -43.967855,
		"capital": false
	},
	{
		"estado": "BA",
		"cidade": "Brotas de Macaúbas",
		"lat": -11.991452,
		"long": -42.632609,
		"capital": false
	},
	{
		"estado": "BA",
		"cidade": "Brumado",
		"lat": -14.202127,
		"long": -41.669592,
		"capital": false
	},
	{
		"estado": "BA",
		"cidade": "Buerarema",
		"lat": -14.959497,
		"long": -39.302849,
		"capital": false
	},
	{
		"estado": "BA",
		"cidade": "Buritirama",
		"lat": -10.717055,
		"long": -43.630231,
		"capital": false
	},
	{
		"estado": "BA",
		"cidade": "Caatiba",
		"lat": -14.969854,
		"long": -40.409156,
		"capital": false
	},
	{
		"estado": "BA",
		"cidade": "Cabaceiras do Paraguaçu",
		"lat": -12.531694,
		"long": -39.190231,
		"capital": false
	},
	{
		"estado": "BA",
		"cidade": "Cachoeira",
		"lat": 0,
		"long": 0,
		"capital": false
	},
	{
		"estado": "BA",
		"cidade": "Caculé",
		"lat": -14.500281,
		"long": -42.222872,
		"capital": false
	},
	{
		"estado": "BA",
		"cidade": "Caém",
		"lat": -11.067693,
		"long": -40.432039,
		"capital": false
	},
	{
		"estado": "BA",
		"cidade": "Caetanos",
		"lat": -14.334745,
		"long": -40.917506,
		"capital": false
	},
	{
		"estado": "BA",
		"cidade": "Caetité",
		"lat": -14.068422,
		"long": -42.486133,
		"capital": false
	},
	{
		"estado": "BA",
		"cidade": "Cafarnaum",
		"lat": -11.691399,
		"long": -41.468823,
		"capital": false
	},
	{
		"estado": "BA",
		"cidade": "Cairu",
		"lat": -13.490377,
		"long": -39.046525,
		"capital": false
	},
	{
		"estado": "BA",
		"cidade": "Caldeirão Grande",
		"lat": -11.020798,
		"long": -40.295577,
		"capital": false
	},
	{
		"estado": "BA",
		"cidade": "Camacan",
		"lat": -15.414157,
		"long": -39.491937,
		"capital": false
	},
	{
		"estado": "BA",
		"cidade": "Camaçari",
		"lat": -12.699638,
		"long": -38.326265,
		"capital": false
	},
	{
		"estado": "BA",
		"cidade": "Camamu",
		"lat": -13.939773,
		"long": -39.107082,
		"capital": false
	},
	{
		"estado": "BA",
		"cidade": "Campo Alegre de Lourdes",
		"lat": -9.522212,
		"long": -43.01258,
		"capital": false
	},
	{
		"estado": "BA",
		"cidade": "Campo Formoso",
		"lat": 0,
		"long": 0,
		"capital": false
	},
	{
		"estado": "BA",
		"cidade": "Canápolis",
		"lat": 0,
		"long": 0,
		"capital": false
	},
	{
		"estado": "BA",
		"cidade": "Canarana",
		"lat": 0,
		"long": 0,
		"capital": false
	},
	{
		"estado": "BA",
		"cidade": "Canavieiras",
		"lat": -15.672205,
		"long": -38.953648,
		"capital": false
	},
	{
		"estado": "BA",
		"cidade": "Candeal",
		"lat": -11.804851,
		"long": -39.120277,
		"capital": false
	},
	{
		"estado": "BA",
		"cidade": "Candeias",
		"lat": 0,
		"long": 0,
		"capital": false
	},
	{
		"estado": "BA",
		"cidade": "Candiba",
		"lat": -14.409738,
		"long": -42.866694,
		"capital": false
	},
	{
		"estado": "BA",
		"cidade": "Cândido Sales",
		"lat": -15.499309,
		"long": -41.241438,
		"capital": false
	},
	{
		"estado": "BA",
		"cidade": "Cansanção",
		"lat": -10.664713,
		"long": -39.494388,
		"capital": false
	},
	{
		"estado": "BA",
		"cidade": "Canudos",
		"lat": -9.900135,
		"long": -39.147059,
		"capital": false
	},
	{
		"estado": "BA",
		"cidade": "Capela do Alto Alegre",
		"lat": -11.665797,
		"long": -39.834912,
		"capital": false
	},
	{
		"estado": "BA",
		"cidade": "Capim Grosso",
		"lat": -11.3777725,
		"long": -40.0090527,
		"capital": false
	},
	{
		"estado": "BA",
		"cidade": "Caraíbas",
		"lat": 0,
		"long": 0,
		"capital": false
	},
	{
		"estado": "BA",
		"cidade": "Caravelas",
		"lat": -17.726839,
		"long": -39.259679,
		"capital": false
	},
	{
		"estado": "BA",
		"cidade": "Cardeal da Silva",
		"lat": -11.947191,
		"long": -37.946905,
		"capital": false
	},
	{
		"estado": "BA",
		"cidade": "Carinhanha",
		"lat": -14.298524,
		"long": -43.772349,
		"capital": false
	},
	{
		"estado": "BA",
		"cidade": "Casa Nova",
		"lat": -9.164083,
		"long": -40.973977,
		"capital": false
	},
	{
		"estado": "BA",
		"cidade": "Castro Alves",
		"lat": -12.75795,
		"long": -39.424753,
		"capital": false
	},
	{
		"estado": "BA",
		"cidade": "Catolândia",
		"lat": -12.310013,
		"long": -44.864808,
		"capital": false
	},
	{
		"estado": "BA",
		"cidade": "Catu",
		"lat": -12.351274,
		"long": -38.379108,
		"capital": false
	},
	{
		"estado": "BA",
		"cidade": "Caturama",
		"lat": -13.323938,
		"long": -42.290385,
		"capital": false
	},
	{
		"estado": "BA",
		"cidade": "Central",
		"lat": -11.137576,
		"long": -42.111625,
		"capital": false
	},
	{
		"estado": "BA",
		"cidade": "Chorrochó",
		"lat": -8.969498,
		"long": -39.097942,
		"capital": false
	},
	{
		"estado": "BA",
		"cidade": "Cícero Dantas",
		"lat": -10.589664,
		"long": -38.379377,
		"capital": false
	},
	{
		"estado": "BA",
		"cidade": "Cipó",
		"lat": -11.103172,
		"long": -38.517942,
		"capital": false
	},
	{
		"estado": "BA",
		"cidade": "Coaraci",
		"lat": -14.636996,
		"long": -39.555609,
		"capital": false
	},
	{
		"estado": "BA",
		"cidade": "Cocos",
		"lat": -14.1819283,
		"long": -44.5345092,
		"capital": false
	},
	{
		"estado": "BA",
		"cidade": "Conceição da Feira",
		"lat": -12.507835,
		"long": -38.997823,
		"capital": false
	},
	{
		"estado": "BA",
		"cidade": "Conceição do Almeida",
		"lat": -12.768441,
		"long": -39.166801,
		"capital": false
	},
	{
		"estado": "BA",
		"cidade": "Conceição do Coité",
		"lat": -11.559953,
		"long": -39.280827,
		"capital": false
	},
	{
		"estado": "BA",
		"cidade": "Conceição do Jacuípe",
		"lat": -12.326831,
		"long": -38.768433,
		"capital": false
	},
	{
		"estado": "BA",
		"cidade": "Conde",
		"lat": 0,
		"long": 0,
		"capital": false
	},
	{
		"estado": "BA",
		"cidade": "Condeúba",
		"lat": -14.902227,
		"long": -41.971829,
		"capital": false
	},
	{
		"estado": "BA",
		"cidade": "Contendas do Sincorá",
		"lat": -13.75369,
		"long": -41.047953,
		"capital": false
	},
	{
		"estado": "BA",
		"cidade": "Coração de Maria",
		"lat": -12.233332,
		"long": -38.748654,
		"capital": false
	},
	{
		"estado": "BA",
		"cidade": "Cordeiros",
		"lat": -15.035641,
		"long": -41.930796,
		"capital": false
	},
	{
		"estado": "BA",
		"cidade": "Coribe",
		"lat": -13.8234286,
		"long": -44.4585061,
		"capital": false
	},
	{
		"estado": "BA",
		"cidade": "Coronel João Sá",
		"lat": -10.2847,
		"long": -37.919825,
		"capital": false
	},
	{
		"estado": "BA",
		"cidade": "Correntina",
		"lat": -13.347674,
		"long": -44.633335,
		"capital": false
	},
	{
		"estado": "BA",
		"cidade": "Cotegipe",
		"lat": -12.022761,
		"long": -44.256559,
		"capital": false
	},
	{
		"estado": "BA",
		"cidade": "Cravolândia",
		"lat": -13.353063,
		"long": -39.803083,
		"capital": false
	},
	{
		"estado": "BA",
		"cidade": "Crisópolis",
		"lat": -11.505929,
		"long": -38.15148,
		"capital": false
	},
	{
		"estado": "BA",
		"cidade": "Cristópolis",
		"lat": -12.224899,
		"long": -44.421358,
		"capital": false
	},
	{
		"estado": "BA",
		"cidade": "Cruz das Almas",
		"lat": -12.667516,
		"long": -39.100787,
		"capital": false
	},
	{
		"estado": "BA",
		"cidade": "Curaçá",
		"lat": -8.984577,
		"long": -39.899671,
		"capital": false
	},
	{
		"estado": "BA",
		"cidade": "Dário Meira",
		"lat": -14.4229,
		"long": -39.903129,
		"capital": false
	},
	{
		"estado": "BA",
		"cidade": "Dias d'Ávila",
		"lat": 0,
		"long": 0,
		"capital": false
	},
	{
		"estado": "BA",
		"cidade": "Dom Basílio",
		"lat": -13.756499,
		"long": -41.767663,
		"capital": false
	},
	{
		"estado": "BA",
		"cidade": "Dom Macedo Costa",
		"lat": -12.901582,
		"long": -39.192259,
		"capital": false
	},
	{
		"estado": "BA",
		"cidade": "Elísio Medrado",
		"lat": -12.941743,
		"long": -39.519087,
		"capital": false
	},
	{
		"estado": "BA",
		"cidade": "Encruzilhada",
		"lat": 0,
		"long": 0,
		"capital": false
	},
	{
		"estado": "BA",
		"cidade": "Entre Rios",
		"lat": 0,
		"long": 0,
		"capital": false
	},
	{
		"estado": "BA",
		"cidade": "Érico Cardoso",
		"lat": -13.421467,
		"long": -42.1352,
		"capital": false
	},
	{
		"estado": "BA",
		"cidade": "Esplanada",
		"lat": 0,
		"long": 0,
		"capital": false
	},
	{
		"estado": "BA",
		"cidade": "Euclides da Cunha",
		"lat": -10.507754,
		"long": -39.015286,
		"capital": false
	},
	{
		"estado": "BA",
		"cidade": "Eunápolis",
		"lat": -16.371498,
		"long": -39.582122,
		"capital": false
	},
	{
		"estado": "BA",
		"cidade": "Fátima",
		"lat": 0,
		"long": 0,
		"capital": false
	},
	{
		"estado": "BA",
		"cidade": "Feira da Mata",
		"lat": -14.204405,
		"long": -44.274424,
		"capital": false
	},
	{
		"estado": "BA",
		"cidade": "Feira de Santana",
		"lat": -12.2667,
		"long": -38.9667,
		"capital": true
	},
	{
		"estado": "BA",
		"cidade": "Filadélfia",
		"lat": -10.740475,
		"long": -40.14371,
		"capital": false
	},
	{
		"estado": "BA",
		"cidade": "Firmino Alves",
		"lat": -14.982334,
		"long": -39.926859,
		"capital": false
	},
	{
		"estado": "BA",
		"cidade": "Floresta Azul",
		"lat": -14.862934,
		"long": -39.657877,
		"capital": false
	},
	{
		"estado": "BA",
		"cidade": "Formosa do Rio Preto",
		"lat": -11.032812,
		"long": -45.19298,
		"capital": false
	},
	{
		"estado": "BA",
		"cidade": "Gandu",
		"lat": -13.744101,
		"long": -39.474651,
		"capital": false
	},
	{
		"estado": "BA",
		"cidade": "Gavião",
		"lat": 0,
		"long": 0,
		"capital": false
	},
	{
		"estado": "BA",
		"cidade": "Gentio do Ouro",
		"lat": -11.434233,
		"long": -42.507652,
		"capital": false
	},
	{
		"estado": "BA",
		"cidade": "Glória",
		"lat": 0,
		"long": 0,
		"capital": false
	},
	{
		"estado": "BA",
		"cidade": "Gongogi",
		"lat": -14.319481,
		"long": -39.46899,
		"capital": false
	},
	{
		"estado": "BA",
		"cidade": "Governador Mangabeira",
		"lat": -12.599415,
		"long": -39.041207,
		"capital": false
	},
	{
		"estado": "BA",
		"cidade": "Guajeru",
		"lat": -14.54668,
		"long": -41.938064,
		"capital": false
	},
	{
		"estado": "BA",
		"cidade": "Guanambi",
		"lat": -14.223066,
		"long": -42.779943,
		"capital": false
	},
	{
		"estado": "BA",
		"cidade": "Guaratinga",
		"lat": -16.583276,
		"long": -39.784713,
		"capital": false
	},
	{
		"estado": "BA",
		"cidade": "Heliópolis",
		"lat": -10.682539,
		"long": -38.290664,
		"capital": false
	},
	{
		"estado": "BA",
		"cidade": "Iaçu",
		"lat": -12.766637,
		"long": -40.205609,
		"capital": false
	},
	{
		"estado": "BA",
		"cidade": "Ibiassucê",
		"lat": -14.271126,
		"long": -42.257026,
		"capital": false
	},
	{
		"estado": "BA",
		"cidade": "Ibicaraí",
		"lat": -14.857877,
		"long": -39.591434,
		"capital": false
	},
	{
		"estado": "BA",
		"cidade": "Ibicoara",
		"lat": -13.405918,
		"long": -41.283989,
		"capital": false
	},
	{
		"estado": "BA",
		"cidade": "Ibicuí",
		"lat": 0,
		"long": 0,
		"capital": false
	},
	{
		"estado": "BA",
		"cidade": "Ibipeba",
		"lat": -11.643775,
		"long": -42.019515,
		"capital": false
	},
	{
		"estado": "BA",
		"cidade": "Ibipitanga",
		"lat": -12.880435,
		"long": -42.485568,
		"capital": false
	},
	{
		"estado": "BA",
		"cidade": "Ibiquera",
		"lat": -12.644354,
		"long": -40.933774,
		"capital": false
	},
	{
		"estado": "BA",
		"cidade": "Ibirapitanga",
		"lat": -14.164898,
		"long": -39.378737,
		"capital": false
	},
	{
		"estado": "BA",
		"cidade": "Ibirapuã",
		"lat": -17.683151,
		"long": -40.112907,
		"capital": false
	},
	{
		"estado": "BA",
		"cidade": "Ibirataia",
		"lat": -14.064316,
		"long": -39.645935,
		"capital": false
	},
	{
		"estado": "BA",
		"cidade": "Ibitiara",
		"lat": -12.650181,
		"long": -42.217946,
		"capital": false
	},
	{
		"estado": "BA",
		"cidade": "Ibititá",
		"lat": -11.541426,
		"long": -41.97481,
		"capital": false
	},
	{
		"estado": "BA",
		"cidade": "Ibotirama",
		"lat": -12.177876,
		"long": -43.21669,
		"capital": false
	},
	{
		"estado": "BA",
		"cidade": "Ichu",
		"lat": -11.743065,
		"long": -39.190523,
		"capital": false
	},
	{
		"estado": "BA",
		"cidade": "Igaporã",
		"lat": -13.774025,
		"long": -42.715508,
		"capital": false
	},
	{
		"estado": "BA",
		"cidade": "Igrapiúna",
		"lat": -13.829543,
		"long": -39.136129,
		"capital": false
	},
	{
		"estado": "BA",
		"cidade": "Iguaí",
		"lat": -14.752754,
		"long": -40.089417,
		"capital": false
	},
	{
		"estado": "BA",
		"cidade": "Ilhéus",
		"lat": -14.793045,
		"long": -39.04602,
		"capital": false
	},
	{
		"estado": "BA",
		"cidade": "Inhambupe",
		"lat": -11.780955,
		"long": -38.355048,
		"capital": false
	},
	{
		"estado": "BA",
		"cidade": "Ipecaetá",
		"lat": -12.302846,
		"long": -39.306921,
		"capital": false
	},
	{
		"estado": "BA",
		"cidade": "Ipiaú",
		"lat": -14.12263,
		"long": -39.735252,
		"capital": false
	},
	{
		"estado": "BA",
		"cidade": "Ipirá",
		"lat": -12.1577789,
		"long": -39.7389039,
		"capital": false
	},
	{
		"estado": "BA",
		"cidade": "Ipupiara",
		"lat": -11.821881,
		"long": -42.617913,
		"capital": false
	},
	{
		"estado": "BA",
		"cidade": "Irajuba",
		"lat": -13.256331,
		"long": -40.08482,
		"capital": false
	},
	{
		"estado": "BA",
		"cidade": "Iramaia",
		"lat": -13.290186,
		"long": -40.959471,
		"capital": false
	},
	{
		"estado": "BA",
		"cidade": "Iraquara",
		"lat": -12.24288,
		"long": -41.615504,
		"capital": false
	},
	{
		"estado": "BA",
		"cidade": "Irará",
		"lat": -12.050449,
		"long": -38.763139,
		"capital": false
	},
	{
		"estado": "BA",
		"cidade": "Irecê",
		"lat": -11.303317,
		"long": -41.853462,
		"capital": false
	},
	{
		"estado": "BA",
		"cidade": "Itabela",
		"lat": -16.573188,
		"long": -39.559318,
		"capital": false
	},
	{
		"estado": "BA",
		"cidade": "Itaberaba",
		"lat": -12.5108686,
		"long": -40.3106221,
		"capital": false
	},
	{
		"estado": "BA",
		"cidade": "Itabuna",
		"lat": -14.7876,
		"long": -39.2782,
		"capital": false
	},
	{
		"estado": "BA",
		"cidade": "Itacaré",
		"lat": -14.278422,
		"long": -38.99591,
		"capital": false
	},
	{
		"estado": "BA",
		"cidade": "Itaeté",
		"lat": -12.983121,
		"long": -40.96774,
		"capital": false
	},
	{
		"estado": "BA",
		"cidade": "Itagi",
		"lat": -14.1615,
		"long": -40.013112,
		"capital": false
	},
	{
		"estado": "BA",
		"cidade": "Itagibá",
		"lat": -14.278239,
		"long": -39.844945,
		"capital": false
	},
	{
		"estado": "BA",
		"cidade": "Itagimirim",
		"lat": -16.081919,
		"long": -39.613317,
		"capital": false
	},
	{
		"estado": "BA",
		"cidade": "Itaguaçu da Bahia",
		"lat": -11.014672,
		"long": -42.399671,
		"capital": false
	},
	{
		"estado": "BA",
		"cidade": "Itaju do Colônia",
		"lat": -15.136598,
		"long": -39.728298,
		"capital": false
	},
	{
		"estado": "BA",
		"cidade": "Itajuípe",
		"lat": -14.678766,
		"long": -39.369823,
		"capital": false
	},
	{
		"estado": "BA",
		"cidade": "Itamaraju",
		"lat": -17.0351619,
		"long": -39.5302001,
		"capital": false
	},
	{
		"estado": "BA",
		"cidade": "Itamari",
		"lat": -13.778192,
		"long": -39.682959,
		"capital": false
	},
	{
		"estado": "BA",
		"cidade": "Itambé",
		"lat": 0,
		"long": 0,
		"capital": false
	},
	{
		"estado": "BA",
		"cidade": "Itanagra",
		"lat": -12.261435,
		"long": -38.043595,
		"capital": false
	},
	{
		"estado": "BA",
		"cidade": "Itanhém",
		"lat": -17.164207,
		"long": -40.332139,
		"capital": false
	},
	{
		"estado": "BA",
		"cidade": "Itaparica",
		"lat": 0,
		"long": 0,
		"capital": false
	},
	{
		"estado": "BA",
		"cidade": "Itapé",
		"lat": -14.887641,
		"long": -39.423858,
		"capital": false
	},
	{
		"estado": "BA",
		"cidade": "Itapebi",
		"lat": -15.955063,
		"long": -39.532863,
		"capital": false
	},
	{
		"estado": "BA",
		"cidade": "Itapetinga",
		"lat": -15.2451518,
		"long": -40.2458578,
		"capital": false
	},
	{
		"estado": "BA",
		"cidade": "Itapicuru",
		"lat": -11.308836,
		"long": -38.226229,
		"capital": false
	},
	{
		"estado": "BA",
		"cidade": "Itapitanga",
		"lat": -14.413932,
		"long": -39.565654,
		"capital": false
	},
	{
		"estado": "BA",
		"cidade": "Itaquara",
		"lat": -13.44589,
		"long": -39.937767,
		"capital": false
	},
	{
		"estado": "BA",
		"cidade": "Itarantim",
		"lat": -15.652819,
		"long": -40.06496,
		"capital": false
	},
	{
		"estado": "BA",
		"cidade": "Itatim",
		"lat": -12.709888,
		"long": -39.695199,
		"capital": false
	},
	{
		"estado": "BA",
		"cidade": "Itiruçu",
		"lat": -13.529043,
		"long": -40.147186,
		"capital": false
	},
	{
		"estado": "BA",
		"cidade": "Itiúba",
		"lat": -10.694761,
		"long": -39.844616,
		"capital": false
	},
	{
		"estado": "BA",
		"cidade": "Itororó",
		"lat": -15.109988,
		"long": -40.068401,
		"capital": false
	},
	{
		"estado": "BA",
		"cidade": "Ituaçu",
		"lat": -13.810651,
		"long": -41.300284,
		"capital": false
	},
	{
		"estado": "BA",
		"cidade": "Ituberá",
		"lat": -13.724936,
		"long": -39.148059,
		"capital": false
	},
	{
		"estado": "BA",
		"cidade": "Iuiú",
		"lat": -14.405424,
		"long": -43.559547,
		"capital": false
	},
	{
		"estado": "BA",
		"cidade": "Jaborandi",
		"lat": 0,
		"long": 0,
		"capital": false
	},
	{
		"estado": "BA",
		"cidade": "Jacaraci",
		"lat": -14.85409,
		"long": -42.432878,
		"capital": false
	},
	{
		"estado": "BA",
		"cidade": "Jacobina",
		"lat": -11.181217,
		"long": -40.511693,
		"capital": false
	},
	{
		"estado": "BA",
		"cidade": "Jaguaquara",
		"lat": -13.524834,
		"long": -39.964009,
		"capital": false
	},
	{
		"estado": "BA",
		"cidade": "Jaguarari",
		"lat": -10.256859,
		"long": -40.199938,
		"capital": false
	},
	{
		"estado": "BA",
		"cidade": "Jaguaripe",
		"lat": -13.110924,
		"long": -38.893891,
		"capital": false
	},
	{
		"estado": "BA",
		"cidade": "Jandaíra",
		"lat": 0,
		"long": 0,
		"capital": false
	},
	{
		"estado": "BA",
		"cidade": "Jequié",
		"lat": -13.850888,
		"long": -40.087704,
		"capital": false
	},
	{
		"estado": "BA",
		"cidade": "Jeremoabo",
		"lat": -10.06848,
		"long": -38.347097,
		"capital": false
	},
	{
		"estado": "BA",
		"cidade": "Jiquiriçá",
		"lat": -13.262101,
		"long": -39.57365,
		"capital": false
	},
	{
		"estado": "BA",
		"cidade": "Jitaúna",
		"lat": -14.013085,
		"long": -39.896892,
		"capital": false
	},
	{
		"estado": "BA",
		"cidade": "João Dourado",
		"lat": -11.348642,
		"long": -41.654799,
		"capital": false
	},
	{
		"estado": "BA",
		"cidade": "Juazeiro",
		"lat": -9.4201,
		"long": -40.4979,
		"capital": false
	},
	{
		"estado": "BA",
		"cidade": "Jucuruçu",
		"lat": -16.848752,
		"long": -40.164074,
		"capital": false
	},
	{
		"estado": "BA",
		"cidade": "Jussara",
		"lat": 0,
		"long": 0,
		"capital": false
	},
	{
		"estado": "BA",
		"cidade": "Jussari",
		"lat": -15.19201,
		"long": -39.490962,
		"capital": false
	},
	{
		"estado": "BA",
		"cidade": "Jussiape",
		"lat": -13.515514,
		"long": -41.588209,
		"capital": false
	},
	{
		"estado": "BA",
		"cidade": "Lafaiete Coutinho",
		"lat": -13.6541,
		"long": -40.21189,
		"capital": false
	},
	{
		"estado": "BA",
		"cidade": "Lagoa Real",
		"lat": -14.033443,
		"long": -42.132764,
		"capital": false
	},
	{
		"estado": "BA",
		"cidade": "Laje",
		"lat": -13.167327,
		"long": -39.421264,
		"capital": false
	},
	{
		"estado": "BA",
		"cidade": "Lajedão",
		"lat": -17.609165,
		"long": -40.344825,
		"capital": false
	},
	{
		"estado": "BA",
		"cidade": "Lajedinho",
		"lat": -12.352889,
		"long": -40.904752,
		"capital": false
	},
	{
		"estado": "BA",
		"cidade": "Lajedo do Tabocal",
		"lat": -13.466286,
		"long": -40.220429,
		"capital": false
	},
	{
		"estado": "BA",
		"cidade": "Lamarão",
		"lat": 0,
		"long": 0,
		"capital": false
	},
	{
		"estado": "BA",
		"cidade": "Lapão",
		"lat": -11.385096,
		"long": -41.828615,
		"capital": false
	},
	{
		"estado": "BA",
		"cidade": "Lauro de Freitas",
		"lat": -12.89,
		"long": -38.32,
		"capital": false
	},
	{
		"estado": "BA",
		"cidade": "Lençóis",
		"lat": -12.561604,
		"long": -41.392825,
		"capital": false
	},
	{
		"estado": "BA",
		"cidade": "Licínio de Almeida",
		"lat": -14.684215,
		"long": -42.509527,
		"capital": false
	},
	{
		"estado": "BA",
		"cidade": "Livramento de Nossa Senhora",
		"lat": -13.636868,
		"long": -41.843187,
		"capital": false
	},
	{
		"estado": "BA",
		"cidade": "Luís Eduardo Magalhães",
		"lat": 0,
		"long": 0,
		"capital": false
	},
	{
		"estado": "BA",
		"cidade": "Macajuba",
		"lat": -12.132592,
		"long": -40.357058,
		"capital": false
	},
	{
		"estado": "BA",
		"cidade": "Macarani",
		"lat": -15.564563,
		"long": -40.420888,
		"capital": false
	},
	{
		"estado": "BA",
		"cidade": "Macaúbas",
		"lat": -13.018601,
		"long": -42.694515,
		"capital": false
	},
	{
		"estado": "BA",
		"cidade": "Macururé",
		"lat": -9.162258,
		"long": -39.051784,
		"capital": false
	},
	{
		"estado": "BA",
		"cidade": "Madre de Deus",
		"lat": 0,
		"long": 0,
		"capital": false
	},
	{
		"estado": "BA",
		"cidade": "Maetinga",
		"lat": -14.662335,
		"long": -41.49146,
		"capital": false
	},
	{
		"estado": "BA",
		"cidade": "Maiquinique",
		"lat": -15.623985,
		"long": -40.258722,
		"capital": false
	},
	{
		"estado": "BA",
		"cidade": "Mairi",
		"lat": -11.710704,
		"long": -40.143732,
		"capital": false
	},
	{
		"estado": "BA",
		"cidade": "Malhada",
		"lat": 0,
		"long": 0,
		"capital": false
	},
	{
		"estado": "BA",
		"cidade": "Malhada de Pedras",
		"lat": -14.384673,
		"long": -41.88422,
		"capital": false
	},
	{
		"estado": "BA",
		"cidade": "Manoel Vitorino",
		"lat": -14.147617,
		"long": -40.239895,
		"capital": false
	},
	{
		"estado": "BA",
		"cidade": "Mansidão",
		"lat": -10.722707,
		"long": -44.042798,
		"capital": false
	},
	{
		"estado": "BA",
		"cidade": "Maracás",
		"lat": -13.435468,
		"long": -40.432333,
		"capital": false
	},
	{
		"estado": "BA",
		"cidade": "Maragogipe",
		"lat": -12.77602,
		"long": -38.917519,
		"capital": false
	},
	{
		"estado": "BA",
		"cidade": "Maraú",
		"lat": -14.103549,
		"long": -39.013656,
		"capital": false
	},
	{
		"estado": "BA",
		"cidade": "Marcionílio Souza",
		"lat": -13.006437,
		"long": -40.529457,
		"capital": false
	},
	{
		"estado": "BA",
		"cidade": "Mascote",
		"lat": -15.554159,
		"long": -39.301602,
		"capital": false
	},
	{
		"estado": "BA",
		"cidade": "Mata de São João",
		"lat": -12.530685,
		"long": -38.300898,
		"capital": false
	},
	{
		"estado": "BA",
		"cidade": "Matina",
		"lat": -13.910917,
		"long": -42.843914,
		"capital": false
	},
	{
		"estado": "BA",
		"cidade": "Medeiros Neto",
		"lat": -17.370676,
		"long": -40.223776,
		"capital": false
	},
	{
		"estado": "BA",
		"cidade": "Miguel Calmon",
		"lat": -11.429891,
		"long": -40.603084,
		"capital": false
	},
	{
		"estado": "BA",
		"cidade": "Milagres",
		"lat": 0,
		"long": 0,
		"capital": false
	},
	{
		"estado": "BA",
		"cidade": "Mirangaba",
		"lat": -10.960983,
		"long": -40.573996,
		"capital": false
	},
	{
		"estado": "BA",
		"cidade": "Mirante",
		"lat": -14.238469,
		"long": -40.771799,
		"capital": false
	},
	{
		"estado": "BA",
		"cidade": "Monte Santo",
		"lat": -10.437413,
		"long": -39.332077,
		"capital": false
	},
	{
		"estado": "BA",
		"cidade": "Morpará",
		"lat": -11.556892,
		"long": -43.276566,
		"capital": false
	},
	{
		"estado": "BA",
		"cidade": "Morro do Chapéu",
		"lat": 0,
		"long": 0,
		"capital": false
	},
	{
		"estado": "BA",
		"cidade": "Mortugaba",
		"lat": -15.022454,
		"long": -42.372663,
		"capital": false
	},
	{
		"estado": "BA",
		"cidade": "Mucugê",
		"lat": -13.0053,
		"long": -41.370271,
		"capital": false
	},
	{
		"estado": "BA",
		"cidade": "Mucuri",
		"lat": 0,
		"long": 0,
		"capital": false
	},
	{
		"estado": "BA",
		"cidade": "Mulungu do Morro",
		"lat": -11.964776,
		"long": -41.637352,
		"capital": false
	},
	{
		"estado": "BA",
		"cidade": "Mundo Novo",
		"lat": 0,
		"long": 0,
		"capital": false
	},
	{
		"estado": "BA",
		"cidade": "Muniz Ferreira",
		"lat": -13.009227,
		"long": -39.109247,
		"capital": false
	},
	{
		"estado": "BA",
		"cidade": "Muquém de São Francisco",
		"lat": -12.063376,
		"long": -43.543808,
		"capital": false
	},
	{
		"estado": "BA",
		"cidade": "Muritiba",
		"lat": -12.632901,
		"long": -38.992052,
		"capital": false
	},
	{
		"estado": "BA",
		"cidade": "Mutuípe",
		"lat": -13.228381,
		"long": -39.504367,
		"capital": false
	},
	{
		"estado": "BA",
		"cidade": "Nazaré",
		"lat": 0,
		"long": 0,
		"capital": false
	},
	{
		"estado": "BA",
		"cidade": "Nilo Peçanha",
		"lat": -13.603992,
		"long": -39.109111,
		"capital": false
	},
	{
		"estado": "BA",
		"cidade": "Nordestina",
		"lat": 0,
		"long": 0,
		"capital": false
	},
	{
		"estado": "BA",
		"cidade": "Nova Canaã",
		"lat": -14.791242,
		"long": -40.1458,
		"capital": false
	},
	{
		"estado": "BA",
		"cidade": "Nova Fátima",
		"lat": 0,
		"long": 0,
		"capital": false
	},
	{
		"estado": "BA",
		"cidade": "Nova Ibiá",
		"lat": -13.811995,
		"long": -39.618174,
		"capital": false
	},
	{
		"estado": "BA",
		"cidade": "Nova Itarana",
		"lat": -13.024055,
		"long": -40.065267,
		"capital": false
	},
	{
		"estado": "BA",
		"cidade": "Nova Redenção",
		"lat": -12.815001,
		"long": -41.074785,
		"capital": false
	},
	{
		"estado": "BA",
		"cidade": "Nova Soure",
		"lat": -11.232948,
		"long": -38.487103,
		"capital": false
	},
	{
		"estado": "BA",
		"cidade": "Nova Viçosa",
		"lat": -17.892648,
		"long": -39.374331,
		"capital": false
	},
	{
		"estado": "BA",
		"cidade": "Novo Horizonte",
		"lat": 0,
		"long": 0,
		"capital": false
	},
	{
		"estado": "BA",
		"cidade": "Novo Triunfo",
		"lat": -10.318235,
		"long": -38.401374,
		"capital": false
	},
	{
		"estado": "BA",
		"cidade": "Olindina",
		"lat": -11.349693,
		"long": -38.337863,
		"capital": false
	},
	{
		"estado": "BA",
		"cidade": "Oliveira dos Brejinhos",
		"lat": -12.313183,
		"long": -42.896872,
		"capital": false
	},
	{
		"estado": "BA",
		"cidade": "Ouriçangas",
		"lat": -12.017497,
		"long": -38.616624,
		"capital": false
	},
	{
		"estado": "BA",
		"cidade": "Ourolândia",
		"lat": -10.957848,
		"long": -41.075576,
		"capital": false
	},
	{
		"estado": "BA",
		"cidade": "Palmas de Monte Alto",
		"lat": -14.267562,
		"long": -43.16086,
		"capital": false
	},
	{
		"estado": "BA",
		"cidade": "Palmeiras",
		"lat": 0,
		"long": 0,
		"capital": false
	},
	{
		"estado": "BA",
		"cidade": "Paramirim",
		"lat": -13.438849,
		"long": -42.239502,
		"capital": false
	},
	{
		"estado": "BA",
		"cidade": "Paratinga",
		"lat": -12.686974,
		"long": -43.179794,
		"capital": false
	},
	{
		"estado": "BA",
		"cidade": "Paripiranga",
		"lat": -10.6957841,
		"long": -37.8648803,
		"capital": false
	},
	{
		"estado": "BA",
		"cidade": "Pau Brasil",
		"lat": -15.457226,
		"long": -39.645794,
		"capital": false
	},
	{
		"estado": "BA",
		"cidade": "Paulo Afonso",
		"lat": -9.3982,
		"long": -38.2217,
		"capital": false
	},
	{
		"estado": "BA",
		"cidade": "Pé de Serra",
		"lat": -11.831289,
		"long": -39.611037,
		"capital": false
	},
	{
		"estado": "BA",
		"cidade": "Pedrão",
		"lat": -12.14914,
		"long": -38.648715,
		"capital": false
	},
	{
		"estado": "BA",
		"cidade": "Pedro Alexandre",
		"lat": -10.012005,
		"long": -37.893178,
		"capital": false
	},
	{
		"estado": "BA",
		"cidade": "Piatã",
		"lat": -13.146549,
		"long": -41.770177,
		"capital": false
	},
	{
		"estado": "BA",
		"cidade": "Pilão Arcado",
		"lat": -10.0004862,
		"long": -42.4797105,
		"capital": false
	},
	{
		"estado": "BA",
		"cidade": "Pindaí",
		"lat": -14.492128,
		"long": -42.685984,
		"capital": false
	},
	{
		"estado": "BA",
		"cidade": "Pindobaçu",
		"lat": -10.743338,
		"long": -40.367472,
		"capital": false
	},
	{
		"estado": "BA",
		"cidade": "Pintadas",
		"lat": -11.811712,
		"long": -39.900859,
		"capital": false
	},
	{
		"estado": "BA",
		"cidade": "Piraí do Norte",
		"lat": -13.758962,
		"long": -39.383592,
		"capital": false
	},
	{
		"estado": "BA",
		"cidade": "Piripá",
		"lat": -14.944379,
		"long": -41.716841,
		"capital": false
	},
	{
		"estado": "BA",
		"cidade": "Piritiba",
		"lat": -11.713635,
		"long": -40.543897,
		"capital": false
	},
	{
		"estado": "BA",
		"cidade": "Planaltino",
		"lat": -13.261789,
		"long": -40.369519,
		"capital": false
	},
	{
		"estado": "BA",
		"cidade": "Planalto",
		"lat": 0,
		"long": 0,
		"capital": false
	},
	{
		"estado": "BA",
		"cidade": "Poções",
		"lat": -14.523391,
		"long": -40.363354,
		"capital": false
	},
	{
		"estado": "BA",
		"cidade": "Pojuca",
		"lat": -12.430336,
		"long": -38.337436,
		"capital": false
	},
	{
		"estado": "BA",
		"cidade": "Ponto Novo",
		"lat": -10.8653,
		"long": -40.131144,
		"capital": false
	},
	{
		"estado": "BA",
		"cidade": "Porto Seguro",
		"lat": -16.4436,
		"long": -39.0643,
		"capital": false
	},
	{
		"estado": "BA",
		"cidade": "Potiraguá",
		"lat": -15.59429,
		"long": -39.863846,
		"capital": false
	},
	{
		"estado": "BA",
		"cidade": "Prado",
		"lat": 0,
		"long": 0,
		"capital": false
	},
	{
		"estado": "BA",
		"cidade": "Presidente Dutra",
		"lat": 0,
		"long": 0,
		"capital": false
	},
	{
		"estado": "BA",
		"cidade": "Presidente Jânio Quadros",
		"lat": -14.688485,
		"long": -41.679792,
		"capital": false
	},
	{
		"estado": "BA",
		"cidade": "Presidente Tancredo Neves",
		"lat": -13.447064,
		"long": -39.420267,
		"capital": false
	},
	{
		"estado": "BA",
		"cidade": "Queimadas",
		"lat": 0,
		"long": 0,
		"capital": false
	},
	{
		"estado": "BA",
		"cidade": "Quijingue",
		"lat": -10.750519,
		"long": -39.213694,
		"capital": false
	},
	{
		"estado": "BA",
		"cidade": "Quixabeira",
		"lat": -11.403061,
		"long": -40.120045,
		"capital": false
	},
	{
		"estado": "BA",
		"cidade": "Rafael Jambeiro",
		"lat": -12.405257,
		"long": -39.500658,
		"capital": false
	},
	{
		"estado": "BA",
		"cidade": "Remanso",
		"lat": -9.6241838,
		"long": -42.0812594,
		"capital": false
	},
	{
		"estado": "BA",
		"cidade": "Retirolândia",
		"lat": -11.483198,
		"long": -39.423358,
		"capital": false
	},
	{
		"estado": "BA",
		"cidade": "Riachão das Neves",
		"lat": -11.750755,
		"long": -44.914259,
		"capital": false
	},
	{
		"estado": "BA",
		"cidade": "Riachão do Jacuípe",
		"lat": -11.8090926,
		"long": -39.3817624,
		"capital": false
	},
	{
		"estado": "BA",
		"cidade": "Riacho de Santana",
		"lat": 0,
		"long": 0,
		"capital": false
	},
	{
		"estado": "BA",
		"cidade": "Ribeira do Amparo",
		"lat": -11.042071,
		"long": -38.424211,
		"capital": false
	},
	{
		"estado": "BA",
		"cidade": "Ribeira do Pombal",
		"lat": -10.837299,
		"long": -38.538152,
		"capital": false
	},
	{
		"estado": "BA",
		"cidade": "Ribeirão do Largo",
		"lat": -15.450775,
		"long": -40.744137,
		"capital": false
	},
	{
		"estado": "BA",
		"cidade": "Rio de Contas",
		"lat": -13.585218,
		"long": -41.804764,
		"capital": false
	},
	{
		"estado": "BA",
		"cidade": "Rio do Antônio",
		"lat": -14.407144,
		"long": -42.072103,
		"capital": false
	},
	{
		"estado": "BA",
		"cidade": "Rio do Pires",
		"lat": -13.11853,
		"long": -42.290166,
		"capital": false
	},
	{
		"estado": "BA",
		"cidade": "Rio Real",
		"lat": -11.48137,
		"long": -37.933243,
		"capital": false
	},
	{
		"estado": "BA",
		"cidade": "Rodelas",
		"lat": -8.850503,
		"long": -38.772173,
		"capital": false
	},
	{
		"estado": "BA",
		"cidade": "Ruy Barbosa",
		"lat": 0,
		"long": 0,
		"capital": false
	},
	{
		"estado": "BA",
		"cidade": "Salinas da Margarida",
		"lat": 0,
		"long": 0,
		"capital": false
	},
	{
		"estado": "BA",
		"cidade": "Salvador",
		"lat": -12.98163556,
		"long": -38.48207707,
		"capital": true
	},
	{
		"estado": "BA",
		"cidade": "Santa Bárbara",
		"lat": 0,
		"long": 0,
		"capital": false
	},
	{
		"estado": "BA",
		"cidade": "Santa Brígida",
		"lat": -9.732273,
		"long": -38.120935,
		"capital": false
	},
	{
		"estado": "BA",
		"cidade": "Santa Cruz Cabrália",
		"lat": -16.282529,
		"long": -39.029495,
		"capital": false
	},
	{
		"estado": "BA",
		"cidade": "Santa Cruz da Vitória",
		"lat": -14.963975,
		"long": -39.811503,
		"capital": false
	},
	{
		"estado": "BA",
		"cidade": "Santa Inês",
		"lat": 0,
		"long": 0,
		"capital": false
	},
	{
		"estado": "BA",
		"cidade": "Santa Luzia",
		"lat": 0,
		"long": 0,
		"capital": false
	},
	{
		"estado": "BA",
		"cidade": "Santa Maria da Vitória",
		"lat": -13.385867,
		"long": -44.201057,
		"capital": false
	},
	{
		"estado": "BA",
		"cidade": "Santa Rita de Cássia",
		"lat": -11.006253,
		"long": -44.525496,
		"capital": false
	},
	{
		"estado": "BA",
		"cidade": "Santa Teresinha",
		"lat": 0,
		"long": 0,
		"capital": false
	},
	{
		"estado": "BA",
		"cidade": "Santaluz",
		"lat": -11.250826,
		"long": -39.375005,
		"capital": false
	},
	{
		"estado": "BA",
		"cidade": "Santana",
		"lat": -0.055426,
		"long": -51.1767672,
		"capital": false
	},
	{
		"estado": "BA",
		"cidade": "Santanópolis",
		"lat": -12.031109,
		"long": -38.869372,
		"capital": false
	},
	{
		"estado": "BA",
		"cidade": "Santo Amaro",
		"lat": -12.547206,
		"long": -38.713679,
		"capital": false
	},
	{
		"estado": "BA",
		"cidade": "Santo Antônio de Jesus",
		"lat": -12.961387,
		"long": -39.258403,
		"capital": false
	},
	{
		"estado": "BA",
		"cidade": "Santo Estêvão",
		"lat": -12.4390283,
		"long": -39.2503653,
		"capital": false
	},
	{
		"estado": "BA",
		"cidade": "São Desidério",
		"lat": -12.357196,
		"long": -44.976881,
		"capital": false
	},
	{
		"estado": "BA",
		"cidade": "São Domingos",
		"lat": 0,
		"long": 0,
		"capital": false
	},
	{
		"estado": "BA",
		"cidade": "São Felipe",
		"lat": 0,
		"long": 0,
		"capital": false
	},
	{
		"estado": "BA",
		"cidade": "São Félix",
		"lat": -12.6073747,
		"long": -38.9698684,
		"capital": false
	},
	{
		"estado": "BA",
		"cidade": "São Félix do Coribe",
		"lat": -13.401883,
		"long": -44.183708,
		"capital": false
	},
	{
		"estado": "BA",
		"cidade": "São Francisco do Conde",
		"lat": -12.618345,
		"long": -38.678601,
		"capital": false
	},
	{
		"estado": "BA",
		"cidade": "São Gabriel",
		"lat": 0,
		"long": 0,
		"capital": false
	},
	{
		"estado": "BA",
		"cidade": "São Gonçalo dos Campos",
		"lat": -12.433096,
		"long": -38.966294,
		"capital": false
	},
	{
		"estado": "BA",
		"cidade": "São José da Vitória",
		"lat": -15.078666,
		"long": -39.343685,
		"capital": false
	},
	{
		"estado": "BA",
		"cidade": "São José do Jacuípe",
		"lat": -11.41368,
		"long": -39.866934,
		"capital": false
	},
	{
		"estado": "BA",
		"cidade": "São Miguel das Matas",
		"lat": -13.043387,
		"long": -39.457844,
		"capital": false
	},
	{
		"estado": "BA",
		"cidade": "São Sebastião do Passé",
		"lat": -12.512264,
		"long": -38.490513,
		"capital": false
	},
	{
		"estado": "BA",
		"cidade": "Sapeaçu",
		"lat": -12.720764,
		"long": -39.182426,
		"capital": false
	},
	{
		"estado": "BA",
		"cidade": "Sátiro Dias",
		"lat": -11.592928,
		"long": -38.593822,
		"capital": false
	},
	{
		"estado": "BA",
		"cidade": "Saubara",
		"lat": -12.738664,
		"long": -38.762473,
		"capital": false
	},
	{
		"estado": "BA",
		"cidade": "Saúde",
		"lat": 0,
		"long": 0,
		"capital": false
	},
	{
		"estado": "BA",
		"cidade": "Seabra",
		"lat": -12.416905,
		"long": -41.772159,
		"capital": false
	},
	{
		"estado": "BA",
		"cidade": "Sebastião Laranjeiras",
		"lat": -14.571002,
		"long": -42.943438,
		"capital": false
	},
	{
		"estado": "BA",
		"cidade": "Senhor do Bonfim",
		"lat": -10.459354,
		"long": -40.186532,
		"capital": false
	},
	{
		"estado": "BA",
		"cidade": "Sento Sé",
		"lat": -9.741378,
		"long": -41.878563,
		"capital": false
	},
	{
		"estado": "BA",
		"cidade": "Serra do Ramalho",
		"lat": -13.565889,
		"long": -43.592907,
		"capital": false
	},
	{
		"estado": "BA",
		"cidade": "Serra Dourada",
		"lat": 0,
		"long": 0,
		"capital": false
	},
	{
		"estado": "BA",
		"cidade": "Serra Preta",
		"lat": -12.156039,
		"long": -39.33049,
		"capital": false
	},
	{
		"estado": "BA",
		"cidade": "Serrinha",
		"lat": 0,
		"long": 0,
		"capital": false
	},
	{
		"estado": "BA",
		"cidade": "Serrolândia",
		"lat": 0,
		"long": 0,
		"capital": false
	},
	{
		"estado": "BA",
		"cidade": "Simões Filho",
		"lat": 0,
		"long": 0,
		"capital": false
	},
	{
		"estado": "BA",
		"cidade": "Sítio do Mato",
		"lat": -13.080149,
		"long": -43.468921,
		"capital": false
	},
	{
		"estado": "BA",
		"cidade": "Sítio do Quinto",
		"lat": -10.354453,
		"long": -38.221325,
		"capital": false
	},
	{
		"estado": "BA",
		"cidade": "Sobradinho",
		"lat": 0,
		"long": 0,
		"capital": false
	},
	{
		"estado": "BA",
		"cidade": "Souto Soares",
		"lat": -12.088046,
		"long": -41.642717,
		"capital": false
	},
	{
		"estado": "BA",
		"cidade": "Tabocas do Brejo Velho",
		"lat": -12.702634,
		"long": -44.007449,
		"capital": false
	},
	{
		"estado": "BA",
		"cidade": "Tanhaçu",
		"lat": -14.019662,
		"long": -41.247271,
		"capital": false
	},
	{
		"estado": "BA",
		"cidade": "Tanque Novo",
		"lat": -13.548509,
		"long": -42.493412,
		"capital": false
	},
	{
		"estado": "BA",
		"cidade": "Tanquinho",
		"lat": -11.967965,
		"long": -39.103312,
		"capital": false
	},
	{
		"estado": "BA",
		"cidade": "Taperoá",
		"lat": 0,
		"long": 0,
		"capital": false
	},
	{
		"estado": "BA",
		"cidade": "Tapiramutá",
		"lat": -11.84748,
		"long": -40.792656,
		"capital": false
	},
	{
		"estado": "BA",
		"cidade": "Teixeira de Freitas",
		"lat": -17.5380281,
		"long": -39.7365371,
		"capital": false
	},
	{
		"estado": "BA",
		"cidade": "Teodoro Sampaio",
		"lat": 0,
		"long": 0,
		"capital": false
	},
	{
		"estado": "BA",
		"cidade": "Teofilândia",
		"lat": -11.482719,
		"long": -38.991264,
		"capital": false
	},
	{
		"estado": "BA",
		"cidade": "Teolândia",
		"lat": -13.589639,
		"long": -39.483986,
		"capital": false
	},
	{
		"estado": "BA",
		"cidade": "Terra Nova",
		"lat": 0,
		"long": 0,
		"capital": false
	},
	{
		"estado": "BA",
		"cidade": "Tremedal",
		"lat": -14.973625,
		"long": -41.414198,
		"capital": false
	},
	{
		"estado": "BA",
		"cidade": "Tucano",
		"lat": -10.958388,
		"long": -38.789407,
		"capital": false
	},
	{
		"estado": "BA",
		"cidade": "Uauá",
		"lat": -9.833247,
		"long": -39.479396,
		"capital": false
	},
	{
		"estado": "BA",
		"cidade": "Ubaíra",
		"lat": -13.271414,
		"long": -39.665991,
		"capital": false
	},
	{
		"estado": "BA",
		"cidade": "Ubaitaba",
		"lat": -14.312023,
		"long": -39.3218124,
		"capital": false
	},
	{
		"estado": "BA",
		"cidade": "Ubatã",
		"lat": -14.206336,
		"long": -39.520696,
		"capital": false
	},
	{
		"estado": "BA",
		"cidade": "Uibaí",
		"lat": -11.33942,
		"long": -42.135381,
		"capital": false
	},
	{
		"estado": "BA",
		"cidade": "Umburanas",
		"lat": 0,
		"long": 0,
		"capital": false
	},
	{
		"estado": "BA",
		"cidade": "Una",
		"lat": -15.279076,
		"long": -39.076507,
		"capital": false
	},
	{
		"estado": "BA",
		"cidade": "Urandi",
		"lat": -14.767799,
		"long": -42.649766,
		"capital": false
	},
	{
		"estado": "BA",
		"cidade": "Uruçuca",
		"lat": -14.596268,
		"long": -39.285085,
		"capital": false
	},
	{
		"estado": "BA",
		"cidade": "Utinga",
		"lat": -12.078277,
		"long": -41.095432,
		"capital": false
	},
	{
		"estado": "BA",
		"cidade": "Valença",
		"lat": 0,
		"long": 0,
		"capital": false
	},
	{
		"estado": "BA",
		"cidade": "Valente",
		"lat": -11.406233,
		"long": -39.456953,
		"capital": false
	},
	{
		"estado": "BA",
		"cidade": "Várzea da Roça",
		"lat": -11.600463,
		"long": -40.132829,
		"capital": false
	},
	{
		"estado": "BA",
		"cidade": "Várzea do Poço",
		"lat": -11.527307,
		"long": -40.314941,
		"capital": false
	},
	{
		"estado": "BA",
		"cidade": "Várzea Nova",
		"lat": -11.255685,
		"long": -40.943173,
		"capital": false
	},
	{
		"estado": "BA",
		"cidade": "Varzedo",
		"lat": -12.967153,
		"long": -39.391874,
		"capital": false
	},
	{
		"estado": "BA",
		"cidade": "Vera Cruz",
		"lat": 0,
		"long": 0,
		"capital": false
	},
	{
		"estado": "BA",
		"cidade": "Vereda",
		"lat": -17.218256,
		"long": -40.097368,
		"capital": false
	},
	{
		"estado": "BA",
		"cidade": "Vitória da Conquista",
		"lat": -14.8498325,
		"long": -40.8380598,
		"capital": false
	},
	{
		"estado": "BA",
		"cidade": "Wagner",
		"lat": -12.281901,
		"long": -41.171476,
		"capital": false
	},
	{
		"estado": "BA",
		"cidade": "Wanderley",
		"lat": -12.114375,
		"long": -43.895787,
		"capital": false
	},
	{
		"estado": "BA",
		"cidade": "Wenceslau Guimarães",
		"lat": -13.690825,
		"long": -39.476178,
		"capital": false
	},
	{
		"estado": "BA",
		"cidade": "Xique-Xique",
		"lat": -10.82296,
		"long": -42.724545,
		"capital": false
	},
	{
		"estado": "CE",
		"cidade": "Abaiara",
		"lat": -7.345879,
		"long": -39.04159,
		"capital": false
	},
	{
		"estado": "CE",
		"cidade": "Acarape",
		"lat": -4.22083,
		"long": -38.705532,
		"capital": false
	},
	{
		"estado": "CE",
		"cidade": "Acaraú",
		"lat": -2.887689,
		"long": -40.118306,
		"capital": false
	},
	{
		"estado": "CE",
		"cidade": "Acopiara",
		"lat": -6.089114,
		"long": -39.448042,
		"capital": false
	},
	{
		"estado": "CE",
		"cidade": "Aiuaba",
		"lat": -6.5737801,
		"long": -40.1269838,
		"capital": false
	},
	{
		"estado": "CE",
		"cidade": "Alcântaras",
		"lat": -3.585369,
		"long": -40.547867,
		"capital": false
	},
	{
		"estado": "CE",
		"cidade": "Altaneira",
		"lat": -6.988047,
		"long": -39.748055,
		"capital": false
	},
	{
		"estado": "CE",
		"cidade": "Alto Santo",
		"lat": -5.508941,
		"long": -38.274318,
		"capital": false
	},
	{
		"estado": "CE",
		"cidade": "Amontada",
		"lat": -3.360166,
		"long": -39.828816,
		"capital": false
	},
	{
		"estado": "CE",
		"cidade": "Antonina do Norte",
		"lat": -6.769193,
		"long": -39.98697,
		"capital": false
	},
	{
		"estado": "CE",
		"cidade": "Apuiarés",
		"lat": -3.945057,
		"long": -39.43593,
		"capital": false
	},
	{
		"estado": "CE",
		"cidade": "Aquiraz",
		"lat": -3.9063524,
		"long": -38.3877096,
		"capital": false
	},
	{
		"estado": "CE",
		"cidade": "Aracati",
		"lat": -4.558259,
		"long": -37.767894,
		"capital": false
	},
	{
		"estado": "CE",
		"cidade": "Aracoiaba",
		"lat": -4.36872,
		"long": -38.812512,
		"capital": false
	},
	{
		"estado": "CE",
		"cidade": "Ararendá",
		"lat": -4.745667,
		"long": -40.83099,
		"capital": false
	},
	{
		"estado": "CE",
		"cidade": "Araripe",
		"lat": -7.213195,
		"long": -40.135894,
		"capital": false
	},
	{
		"estado": "CE",
		"cidade": "Aratuba",
		"lat": -4.412291,
		"long": -39.047117,
		"capital": false
	},
	{
		"estado": "CE",
		"cidade": "Arneiroz",
		"lat": -6.316499,
		"long": -40.165285,
		"capital": false
	},
	{
		"estado": "CE",
		"cidade": "Assaré",
		"lat": -6.866897,
		"long": -39.868872,
		"capital": false
	},
	{
		"estado": "CE",
		"cidade": "Aurora",
		"lat": 0,
		"long": 0,
		"capital": false
	},
	{
		"estado": "CE",
		"cidade": "Baixio",
		"lat": 0,
		"long": 0,
		"capital": false
	},
	{
		"estado": "CE",
		"cidade": "Banabuiú",
		"lat": -5.304544,
		"long": -38.913175,
		"capital": false
	},
	{
		"estado": "CE",
		"cidade": "Barbalha",
		"lat": -7.298203,
		"long": -39.30208,
		"capital": false
	},
	{
		"estado": "CE",
		"cidade": "Barreira",
		"lat": -4.289206,
		"long": -38.64291,
		"capital": false
	},
	{
		"estado": "CE",
		"cidade": "Barro",
		"lat": -7.171879,
		"long": -38.774133,
		"capital": false
	},
	{
		"estado": "CE",
		"cidade": "Barroquinha",
		"lat": -3.020514,
		"long": -41.13585,
		"capital": false
	},
	{
		"estado": "CE",
		"cidade": "Baturité",
		"lat": -4.3297411,
		"long": -38.8822523,
		"capital": false
	},
	{
		"estado": "CE",
		"cidade": "Beberibe",
		"lat": -4.1624988,
		"long": -38.1144249,
		"capital": false
	},
	{
		"estado": "CE",
		"cidade": "Bela Cruz",
		"lat": -3.049964,
		"long": -40.167127,
		"capital": false
	},
	{
		"estado": "CE",
		"cidade": "Boa Viagem",
		"lat": 0,
		"long": 0,
		"capital": false
	},
	{
		"estado": "CE",
		"cidade": "Brejo Santo",
		"lat": -7.484686,
		"long": -38.979911,
		"capital": false
	},
	{
		"estado": "CE",
		"cidade": "Camocim",
		"lat": -2.900499,
		"long": -40.854362,
		"capital": false
	},
	{
		"estado": "CE",
		"cidade": "Campos Sales",
		"lat": -7.067611,
		"long": -40.368678,
		"capital": false
	},
	{
		"estado": "CE",
		"cidade": "Canindé",
		"lat": -4.351618,
		"long": -39.315505,
		"capital": false
	},
	{
		"estado": "CE",
		"cidade": "Capistrano",
		"lat": 0,
		"long": 0,
		"capital": false
	},
	{
		"estado": "CE",
		"cidade": "Caridade",
		"lat": -4.225141,
		"long": -39.191166,
		"capital": false
	},
	{
		"estado": "CE",
		"cidade": "Cariré",
		"lat": -3.948584,
		"long": -40.476028,
		"capital": false
	},
	{
		"estado": "CE",
		"cidade": "Caririaçu",
		"lat": -7.028076,
		"long": -39.28276,
		"capital": false
	},
	{
		"estado": "CE",
		"cidade": "Cariús",
		"lat": -6.524282,
		"long": -39.491619,
		"capital": false
	},
	{
		"estado": "CE",
		"cidade": "Carnaubal",
		"lat": -4.159846,
		"long": -40.941304,
		"capital": false
	},
	{
		"estado": "CE",
		"cidade": "Cascavel",
		"lat": 0,
		"long": 0,
		"capital": false
	},
	{
		"estado": "CE",
		"cidade": "Catarina",
		"lat": -6.122911,
		"long": -39.873644,
		"capital": false
	},
	{
		"estado": "CE",
		"cidade": "Catunda",
		"lat": -4.64336,
		"long": -40.199988,
		"capital": false
	},
	{
		"estado": "CE",
		"cidade": "Caucaia",
		"lat": -3.7297,
		"long": -38.6596,
		"capital": false
	},
	{
		"estado": "CE",
		"cidade": "Cedro",
		"lat": 0,
		"long": 0,
		"capital": false
	},
	{
		"estado": "CE",
		"cidade": "Chaval",
		"lat": -3.035708,
		"long": -41.24346,
		"capital": false
	},
	{
		"estado": "CE",
		"cidade": "Choró",
		"lat": -4.839062,
		"long": -39.134397,
		"capital": false
	},
	{
		"estado": "CE",
		"cidade": "Chorozinho",
		"lat": -4.28873,
		"long": -38.498572,
		"capital": false
	},
	{
		"estado": "CE",
		"cidade": "Coreaú",
		"lat": -3.541496,
		"long": -40.658656,
		"capital": false
	},
	{
		"estado": "CE",
		"cidade": "Crateús",
		"lat": -5.167683,
		"long": -40.653635,
		"capital": false
	},
	{
		"estado": "CE",
		"cidade": "Crato",
		"lat": -7.2154,
		"long": -39.4106,
		"capital": false
	},
	{
		"estado": "CE",
		"cidade": "Croatá",
		"lat": 0,
		"long": 0,
		"capital": false
	},
	{
		"estado": "CE",
		"cidade": "Cruz",
		"lat": 0,
		"long": 0,
		"capital": false
	},
	{
		"estado": "CE",
		"cidade": "Deputado Irapuan Pinheiro",
		"lat": -5.914848,
		"long": -39.25701,
		"capital": false
	},
	{
		"estado": "CE",
		"cidade": "Ererê",
		"lat": -6.027508,
		"long": -38.346113,
		"capital": false
	},
	{
		"estado": "CE",
		"cidade": "Eusébio",
		"lat": -3.892501,
		"long": -38.455875,
		"capital": false
	},
	{
		"estado": "CE",
		"cidade": "Farias Brito",
		"lat": 0,
		"long": 0,
		"capital": false
	},
	{
		"estado": "CE",
		"cidade": "Forquilha",
		"lat": -3.799447,
		"long": -40.263405,
		"capital": false
	},
	{
		"estado": "CE",
		"cidade": "Fortaleza",
		"lat": -3.73045122,
		"long": -38.52179892,
		"capital": true
	},
	{
		"estado": "CE",
		"cidade": "Fortim",
		"lat": -4.451256,
		"long": -37.798056,
		"capital": false
	},
	{
		"estado": "CE",
		"cidade": "Frecheirinha",
		"lat": -3.755572,
		"long": -40.818019,
		"capital": false
	},
	{
		"estado": "CE",
		"cidade": "General Sampaio",
		"lat": -4.043507,
		"long": -39.453958,
		"capital": false
	},
	{
		"estado": "CE",
		"cidade": "Graça",
		"lat": -4.044215,
		"long": -40.749026,
		"capital": false
	},
	{
		"estado": "CE",
		"cidade": "Granja",
		"lat": -3.127879,
		"long": -40.837205,
		"capital": false
	},
	{
		"estado": "CE",
		"cidade": "Granjeiro",
		"lat": -6.873862,
		"long": -39.21439,
		"capital": false
	},
	{
		"estado": "CE",
		"cidade": "Groaíras",
		"lat": -3.917868,
		"long": -40.385225,
		"capital": false
	},
	{
		"estado": "CE",
		"cidade": "Guaiúba",
		"lat": -4.040571,
		"long": -38.640372,
		"capital": false
	},
	{
		"estado": "CE",
		"cidade": "Guaraciaba do Norte",
		"lat": -4.158136,
		"long": -40.747588,
		"capital": false
	},
	{
		"estado": "CE",
		"cidade": "Guaramiranga",
		"lat": -4.262477,
		"long": -38.932044,
		"capital": false
	},
	{
		"estado": "CE",
		"cidade": "Hidrolândia",
		"lat": 0,
		"long": 0,
		"capital": false
	},
	{
		"estado": "CE",
		"cidade": "Horizonte",
		"lat": 0,
		"long": 0,
		"capital": false
	},
	{
		"estado": "CE",
		"cidade": "Ibaretama",
		"lat": -4.803764,
		"long": -38.750085,
		"capital": false
	},
	{
		"estado": "CE",
		"cidade": "Ibiapina",
		"lat": -3.924025,
		"long": -40.891147,
		"capital": false
	},
	{
		"estado": "CE",
		"cidade": "Ibicuitinga",
		"lat": -4.969993,
		"long": -38.636249,
		"capital": false
	},
	{
		"estado": "CE",
		"cidade": "Icapuí",
		"lat": -4.7155117,
		"long": -37.3545429,
		"capital": false
	},
	{
		"estado": "CE",
		"cidade": "Icó",
		"lat": 0,
		"long": 0,
		"capital": false
	},
	{
		"estado": "CE",
		"cidade": "Iguatu",
		"lat": 0,
		"long": 0,
		"capital": false
	},
	{
		"estado": "CE",
		"cidade": "Independência",
		"lat": 0,
		"long": 0,
		"capital": false
	},
	{
		"estado": "CE",
		"cidade": "Ipaporanga",
		"lat": -4.897636,
		"long": -40.753705,
		"capital": false
	},
	{
		"estado": "CE",
		"cidade": "Ipaumirim",
		"lat": -6.782648,
		"long": -38.717856,
		"capital": false
	},
	{
		"estado": "CE",
		"cidade": "Ipu",
		"lat": -4.3233084,
		"long": -40.7094754,
		"capital": false
	},
	{
		"estado": "CE",
		"cidade": "Ipueiras",
		"lat": 0,
		"long": 0,
		"capital": false
	},
	{
		"estado": "CE",
		"cidade": "Iracema",
		"lat": 0,
		"long": 0,
		"capital": false
	},
	{
		"estado": "CE",
		"cidade": "Irauçuba",
		"lat": -3.7476677,
		"long": -39.7826527,
		"capital": false
	},
	{
		"estado": "CE",
		"cidade": "Itaiçaba",
		"lat": -4.671461,
		"long": -37.832957,
		"capital": false
	},
	{
		"estado": "CE",
		"cidade": "Itaitinga",
		"lat": -3.965768,
		"long": -38.529763,
		"capital": false
	},
	{
		"estado": "CE",
		"cidade": "Itapagé",
		"lat": 0,
		"long": 0,
		"capital": false
	},
	{
		"estado": "CE",
		"cidade": "Itapipoca",
		"lat": -3.4994,
		"long": -39.5837,
		"capital": false
	},
	{
		"estado": "CE",
		"cidade": "Itapiúna",
		"lat": -4.555165,
		"long": -38.928113,
		"capital": false
	},
	{
		"estado": "CE",
		"cidade": "Itarema",
		"lat": -2.924797,
		"long": -39.916654,
		"capital": false
	},
	{
		"estado": "CE",
		"cidade": "Itatira",
		"lat": -4.526076,
		"long": -39.620155,
		"capital": false
	},
	{
		"estado": "CE",
		"cidade": "Jaguaretama",
		"lat": -5.605096,
		"long": -38.763861,
		"capital": false
	},
	{
		"estado": "CE",
		"cidade": "Jaguaribara",
		"lat": -5.660093,
		"long": -38.604798,
		"capital": false
	},
	{
		"estado": "CE",
		"cidade": "Jaguaribe",
		"lat": -5.902134,
		"long": -38.622653,
		"capital": false
	},
	{
		"estado": "CE",
		"cidade": "Jaguaruana",
		"lat": -4.831508,
		"long": -37.780997,
		"capital": false
	},
	{
		"estado": "CE",
		"cidade": "Jardim",
		"lat": 0,
		"long": 0,
		"capital": false
	},
	{
		"estado": "CE",
		"cidade": "Jati",
		"lat": -7.6797,
		"long": -39.002871,
		"capital": false
	},
	{
		"estado": "CE",
		"cidade": "Jijoca de Jericoacoara",
		"lat": -2.793312,
		"long": -40.512742,
		"capital": false
	},
	{
		"estado": "CE",
		"cidade": "Juazeiro do Norte",
		"lat": -7.2167,
		"long": -39318,
		"capital": false
	},
	{
		"estado": "CE",
		"cidade": "Jucás",
		"lat": -6.515229,
		"long": -39.518679,
		"capital": false
	},
	{
		"estado": "CE",
		"cidade": "Lavras da Mangabeira",
		"lat": -6.744801,
		"long": -38.970619,
		"capital": false
	},
	{
		"estado": "CE",
		"cidade": "Limoeiro do Norte",
		"lat": -5.143921,
		"long": -38.084693,
		"capital": false
	},
	{
		"estado": "CE",
		"cidade": "Madalena",
		"lat": -4.846012,
		"long": -39.572542,
		"capital": false
	},
	{
		"estado": "CE",
		"cidade": "Maracanaú",
		"lat": -3.8778904,
		"long": -38.6247934,
		"capital": false
	},
	{
		"estado": "CE",
		"cidade": "Maranguape",
		"lat": -3.8915,
		"long": -38.6831,
		"capital": false
	},
	{
		"estado": "CE",
		"cidade": "Marco",
		"lat": -3.128501,
		"long": -40.15824,
		"capital": false
	},
	{
		"estado": "CE",
		"cidade": "Martinópole",
		"lat": -3.225198,
		"long": -40.689581,
		"capital": false
	},
	{
		"estado": "CE",
		"cidade": "Massapê",
		"lat": -3.523645,
		"long": -40.342271,
		"capital": false
	},
	{
		"estado": "CE",
		"cidade": "Mauriti",
		"lat": -7.385974,
		"long": -38.770786,
		"capital": false
	},
	{
		"estado": "CE",
		"cidade": "Meruoca",
		"lat": -3.539741,
		"long": -40.453106,
		"capital": false
	},
	{
		"estado": "CE",
		"cidade": "Milagres",
		"lat": 0,
		"long": 0,
		"capital": false
	},
	{
		"estado": "CE",
		"cidade": "Milhã",
		"lat": -5.672525,
		"long": -39.187483,
		"capital": false
	},
	{
		"estado": "CE",
		"cidade": "Miraíma",
		"lat": -3.568674,
		"long": -39.966267,
		"capital": false
	},
	{
		"estado": "CE",
		"cidade": "Missão Velha",
		"lat": -7.235219,
		"long": -39.143046,
		"capital": false
	},
	{
		"estado": "CE",
		"cidade": "Mombaça",
		"lat": -5.738442,
		"long": -39.630009,
		"capital": false
	},
	{
		"estado": "CE",
		"cidade": "Monsenhor Tabosa",
		"lat": -4.791022,
		"long": -40.064637,
		"capital": false
	},
	{
		"estado": "CE",
		"cidade": "Morada Nova",
		"lat": -5.09736,
		"long": -38.370158,
		"capital": false
	},
	{
		"estado": "CE",
		"cidade": "Moraújo",
		"lat": -3.463112,
		"long": -40.677577,
		"capital": false
	},
	{
		"estado": "CE",
		"cidade": "Morrinhos",
		"lat": 0,
		"long": 0,
		"capital": false
	},
	{
		"estado": "CE",
		"cidade": "Mucambo",
		"lat": 0,
		"long": 0,
		"capital": false
	},
	{
		"estado": "CE",
		"cidade": "Mulungu",
		"lat": 0,
		"long": 0,
		"capital": false
	},
	{
		"estado": "CE",
		"cidade": "Nova Olinda",
		"lat": 0,
		"long": 0,
		"capital": false
	},
	{
		"estado": "CE",
		"cidade": "Nova Russas",
		"lat": -4.705807,
		"long": -40.562118,
		"capital": false
	},
	{
		"estado": "CE",
		"cidade": "Novo Oriente",
		"lat": -5.525519,
		"long": -40.771296,
		"capital": false
	},
	{
		"estado": "CE",
		"cidade": "Ocara",
		"lat": -4.48523,
		"long": -38.593256,
		"capital": false
	},
	{
		"estado": "CE",
		"cidade": "Orós",
		"lat": 0,
		"long": 0,
		"capital": false
	},
	{
		"estado": "CE",
		"cidade": "Pacajus",
		"lat": -4.171073,
		"long": -38.464988,
		"capital": false
	},
	{
		"estado": "CE",
		"cidade": "Pacatuba",
		"lat": 0,
		"long": 0,
		"capital": false
	},
	{
		"estado": "CE",
		"cidade": "Pacoti",
		"lat": -4.224918,
		"long": -38.922011,
		"capital": false
	},
	{
		"estado": "CE",
		"cidade": "Pacujá",
		"lat": -3.983272,
		"long": -40.698885,
		"capital": false
	},
	{
		"estado": "CE",
		"cidade": "Palhano",
		"lat": -4.736722,
		"long": -37.965549,
		"capital": false
	},
	{
		"estado": "CE",
		"cidade": "Palmácia",
		"lat": -4.1377241,
		"long": -38.8455836,
		"capital": false
	},
	{
		"estado": "CE",
		"cidade": "Paracuru",
		"lat": -3.41436,
		"long": -39.030028,
		"capital": false
	},
	{
		"estado": "CE",
		"cidade": "Paraipaba",
		"lat": -3.437987,
		"long": -39.147868,
		"capital": false
	},
	{
		"estado": "CE",
		"cidade": "Parambu",
		"lat": -6.207681,
		"long": -40.690524,
		"capital": false
	},
	{
		"estado": "CE",
		"cidade": "Paramoti",
		"lat": -4.088146,
		"long": -39.241691,
		"capital": false
	},
	{
		"estado": "CE",
		"cidade": "Pedra Branca",
		"lat": 0,
		"long": 0,
		"capital": false
	},
	{
		"estado": "CE",
		"cidade": "Penaforte",
		"lat": -7.82163,
		"long": -39.070724,
		"capital": false
	},
	{
		"estado": "CE",
		"cidade": "Pentecoste",
		"lat": -3.792736,
		"long": -39.269159,
		"capital": false
	},
	{
		"estado": "CE",
		"cidade": "Pereiro",
		"lat": -6.035761,
		"long": -38.462397,
		"capital": false
	},
	{
		"estado": "CE",
		"cidade": "Pindoretama",
		"lat": -4.015839,
		"long": -38.306118,
		"capital": false
	},
	{
		"estado": "CE",
		"cidade": "Piquet Carneiro",
		"lat": -5.800251,
		"long": -39.417017,
		"capital": false
	},
	{
		"estado": "CE",
		"cidade": "Pires Ferreira",
		"lat": -4.239218,
		"long": -40.64418,
		"capital": false
	},
	{
		"estado": "CE",
		"cidade": "Poranga",
		"lat": 0,
		"long": 0,
		"capital": false
	},
	{
		"estado": "CE",
		"cidade": "Porteiras",
		"lat": -7.522647,
		"long": -39.114028,
		"capital": false
	},
	{
		"estado": "CE",
		"cidade": "Potengi",
		"lat": -7.09154,
		"long": -40.023292,
		"capital": false
	},
	{
		"estado": "CE",
		"cidade": "Potiretama",
		"lat": -5.71287,
		"long": -38.157804,
		"capital": false
	},
	{
		"estado": "CE",
		"cidade": "Quiterianópolis",
		"lat": -5.842496,
		"long": -40.700217,
		"capital": false
	},
	{
		"estado": "CE",
		"cidade": "Quixadá",
		"lat": -4.9681311,
		"long": -39.0154181,
		"capital": false
	},
	{
		"estado": "CE",
		"cidade": "Quixelô",
		"lat": -6.246369,
		"long": -39.201067,
		"capital": false
	},
	{
		"estado": "CE",
		"cidade": "Quixeramobim",
		"lat": -5.190672,
		"long": -39.288947,
		"capital": false
	},
	{
		"estado": "CE",
		"cidade": "Quixeré",
		"lat": -5.071482,
		"long": -37.9802,
		"capital": false
	},
	{
		"estado": "CE",
		"cidade": "Redenção",
		"lat": 0,
		"long": 0,
		"capital": false
	},
	{
		"estado": "CE",
		"cidade": "Reriutaba",
		"lat": -4.141911,
		"long": -40.575915,
		"capital": false
	},
	{
		"estado": "CE",
		"cidade": "Russas",
		"lat": -4.926727,
		"long": -37.972086,
		"capital": false
	},
	{
		"estado": "CE",
		"cidade": "Saboeiro",
		"lat": -6.534595,
		"long": -39.90173,
		"capital": false
	},
	{
		"estado": "CE",
		"cidade": "Salitre",
		"lat": -7.28398,
		"long": -40.450013,
		"capital": false
	},
	{
		"estado": "CE",
		"cidade": "Santa Quitéria",
		"lat": 0,
		"long": 0,
		"capital": false
	},
	{
		"estado": "CE",
		"cidade": "Santana do Acaraú",
		"lat": -3.461435,
		"long": -40.211827,
		"capital": false
	},
	{
		"estado": "CE",
		"cidade": "Santana do Cariri",
		"lat": -7.176125,
		"long": -39.730161,
		"capital": false
	},
	{
		"estado": "CE",
		"cidade": "São Benedito",
		"lat": 0,
		"long": 0,
		"capital": false
	},
	{
		"estado": "CE",
		"cidade": "São Gonçalo do Amarante",
		"lat": 0,
		"long": 0,
		"capital": false
	},
	{
		"estado": "CE",
		"cidade": "São João do Jaguaribe",
		"lat": -5.275164,
		"long": -38.269366,
		"capital": false
	},
	{
		"estado": "CE",
		"cidade": "São Luís do Curu",
		"lat": 0,
		"long": 0,
		"capital": false
	},
	{
		"estado": "CE",
		"cidade": "Senador Pompeu",
		"lat": -5.582444,
		"long": -39.370369,
		"capital": false
	},
	{
		"estado": "CE",
		"cidade": "Senador Sá",
		"lat": -3.35305,
		"long": -40.4662,
		"capital": false
	},
	{
		"estado": "CE",
		"cidade": "Sobral",
		"lat": -3.6892,
		"long": -40.3483,
		"capital": false
	},
	{
		"estado": "CE",
		"cidade": "Solonópole",
		"lat": -5.718936,
		"long": -39.01072,
		"capital": false
	},
	{
		"estado": "CE",
		"cidade": "Tabuleiro do Norte",
		"lat": -5.243527,
		"long": -38.128175,
		"capital": false
	},
	{
		"estado": "CE",
		"cidade": "Tamboril",
		"lat": 0,
		"long": 0,
		"capital": false
	},
	{
		"estado": "CE",
		"cidade": "Tarrafas",
		"lat": -6.678376,
		"long": -39.753048,
		"capital": false
	},
	{
		"estado": "CE",
		"cidade": "Tauá",
		"lat": -5.985853,
		"long": -40.296802,
		"capital": false
	},
	{
		"estado": "CE",
		"cidade": "Tejuçuoca",
		"lat": -3.988307,
		"long": -39.579866,
		"capital": false
	},
	{
		"estado": "CE",
		"cidade": "Tianguá",
		"lat": -3.729645,
		"long": -40.992286,
		"capital": false
	},
	{
		"estado": "CE",
		"cidade": "Trairi",
		"lat": 0,
		"long": 0,
		"capital": false
	},
	{
		"estado": "CE",
		"cidade": "Tururu",
		"lat": -3.584132,
		"long": -39.429656,
		"capital": false
	},
	{
		"estado": "CE",
		"cidade": "Ubajara",
		"lat": -3.854479,
		"long": -40.920437,
		"capital": false
	},
	{
		"estado": "CE",
		"cidade": "Umari",
		"lat": 0,
		"long": 0,
		"capital": false
	},
	{
		"estado": "CE",
		"cidade": "Umirim",
		"lat": -3.6770029,
		"long": -39.3493481,
		"capital": false
	},
	{
		"estado": "CE",
		"cidade": "Uruburetama",
		"lat": -3.623165,
		"long": -39.510677,
		"capital": false
	},
	{
		"estado": "CE",
		"cidade": "Uruoca",
		"lat": -3.308194,
		"long": -40.56276,
		"capital": false
	},
	{
		"estado": "CE",
		"cidade": "Varjota",
		"lat": 0,
		"long": 0,
		"capital": false
	},
	{
		"estado": "CE",
		"cidade": "Várzea Alegre",
		"lat": -6.782642,
		"long": -39.294155,
		"capital": false
	},
	{
		"estado": "CE",
		"cidade": "Viçosa do Ceará",
		"lat": -3.566703,
		"long": -41.091554,
		"capital": false
	},
	{
		"estado": "DF",
		"cidade": "Brasília",
		"lat": -15.7941878,
		"long": -47.8827491,
		"capital": true
	},
	{
		"estado": "ES",
		"cidade": "Afonso Cláudio",
		"lat": -20.077841,
		"long": -41.12606,
		"capital": false
	},
	{
		"estado": "ES",
		"cidade": "Água Doce do Norte",
		"lat": -18.5324,
		"long": -40.986,
		"capital": false
	},
	{
		"estado": "ES",
		"cidade": "Águia Branca",
		"lat": -19.0035,
		"long": -40.7474,
		"capital": false
	},
	{
		"estado": "ES",
		"cidade": "Alegre",
		"lat": -20.759,
		"long": -41.5307,
		"capital": false
	},
	{
		"estado": "ES",
		"cidade": "Alfredo Chaves",
		"lat": -20.6054,
		"long": -40.7463,
		"capital": false
	},
	{
		"estado": "ES",
		"cidade": "Alto Rio Novo",
		"lat": -19.0567,
		"long": -41.0009,
		"capital": false
	},
	{
		"estado": "ES",
		"cidade": "Anchieta",
		"lat": -20.8058,
		"long": -40.6455,
		"capital": false
	},
	{
		"estado": "ES",
		"cidade": "Apiacá",
		"lat": -21.1684,
		"long": -41.5338,
		"capital": false
	},
	{
		"estado": "ES",
		"cidade": "Aracruz",
		"lat": -19.824,
		"long": -40.2726,
		"capital": false
	},
	{
		"estado": "ES",
		"cidade": "Atilio Vivacqua",
		"lat": -20.9172,
		"long": -41.2096,
		"capital": false
	},
	{
		"estado": "ES",
		"cidade": "Baixo Guandu",
		"lat": -19.521283,
		"long": -41.010913,
		"capital": false
	},
	{
		"estado": "ES",
		"cidade": "Barra de São Francisco",
		"lat": -18.7904,
		"long": -40.9081,
		"capital": false
	},
	{
		"estado": "ES",
		"cidade": "Boa Esperança",
		"lat": -18.60667,
		"long": -40.4056,
		"capital": false
	},
	{
		"estado": "ES",
		"cidade": "Bom Jesus do Norte",
		"lat": -21.1222,
		"long": -41.6712,
		"capital": false
	},
	{
		"estado": "ES",
		"cidade": "Brejetuba",
		"lat": -20.2606,
		"long": -41.3549,
		"capital": false
	},
	{
		"estado": "ES",
		"cidade": "Cachoeiro de Itapemirim",
		"lat": -20.8683,
		"long": -41.1397,
		"capital": true
	},
	{
		"estado": "ES",
		"cidade": "Cariacica",
		"lat": -20.30289,
		"long": -40.3964,
		"capital": false
	},
	{
		"estado": "ES",
		"cidade": "Castelo",
		"lat": -20.6298,
		"long": -41.2172,
		"capital": false
	},
	{
		"estado": "ES",
		"cidade": "Colatina",
		"lat": -19.5495,
		"long": -40.6251,
		"capital": false
	},
	{
		"estado": "ES",
		"cidade": "Conceição da Barra",
		"lat": -18.6777,
		"long": -39.8578,
		"capital": false
	},
	{
		"estado": "ES",
		"cidade": "Conceição do Castelo",
		"lat": -20.3801,
		"long": -41.337,
		"capital": false
	},
	{
		"estado": "ES",
		"cidade": "Divino de São Lourenço",
		"lat": -20.6203,
		"long": -41.6838,
		"capital": false
	},
	{
		"estado": "ES",
		"cidade": "Domingos Martins",
		"lat": -20.3638,
		"long": -40.6576,
		"capital": false
	},
	{
		"estado": "ES",
		"cidade": "Dores do Rio Preto",
		"lat": -20.6893,
		"long": -41.8482,
		"capital": false
	},
	{
		"estado": "ES",
		"cidade": "Ecoporanga",
		"lat": -18.4271,
		"long": -40.9625,
		"capital": false
	},
	{
		"estado": "ES",
		"cidade": "Fundão",
		"lat": -19.9319,
		"long": -40.4034,
		"capital": false
	},
	{
		"estado": "ES",
		"cidade": "Governador Lindenberg",
		"lat": -19.265,
		"long": -40.5568,
		"capital": false
	},
	{
		"estado": "ES",
		"cidade": "Guaçuí",
		"lat": -20.7727,
		"long": -41.6751,
		"capital": false
	},
	{
		"estado": "ES",
		"cidade": "Guarapari",
		"lat": -20.6592,
		"long": -40.4858,
		"capital": false
	},
	{
		"estado": "ES",
		"cidade": "Ibatiba",
		"lat": -20.2657,
		"long": -41.5994,
		"capital": false
	},
	{
		"estado": "ES",
		"cidade": "Ibiraçu",
		"lat": -19.8592,
		"long": -40.4458,
		"capital": false
	},
	{
		"estado": "ES",
		"cidade": "Ibitirama",
		"lat": -20.5394,
		"long": -41.6647,
		"capital": false
	},
	{
		"estado": "ES",
		"cidade": "Iconha",
		"lat": -20.7935,
		"long": -40.8109,
		"capital": false
	},
	{
		"estado": "ES",
		"cidade": "Irupi",
		"lat": -20.3554,
		"long": -41.6411,
		"capital": false
	},
	{
		"estado": "ES",
		"cidade": "Itaguaçu",
		"lat": -19.8015,
		"long": -40.8565,
		"capital": false
	},
	{
		"estado": "ES",
		"cidade": "Itapemirim",
		"lat": -21.0106,
		"long": -40.8351,
		"capital": false
	},
	{
		"estado": "ES",
		"cidade": "Itarana",
		"lat": -19.8707,
		"long": -40.875,
		"capital": false
	},
	{
		"estado": "ES",
		"cidade": "Iúna",
		"lat": -20.3427,
		"long": -41.536,
		"capital": false
	},
	{
		"estado": "ES",
		"cidade": "Jaguaré",
		"lat": -18.9029,
		"long": -40.0712,
		"capital": false
	},
	{
		"estado": "ES",
		"cidade": "Jerônimo Monteiro",
		"lat": -20.7871,
		"long": -41.3874,
		"capital": false
	},
	{
		"estado": "ES",
		"cidade": "João Neiva",
		"lat": -19.7563,
		"long": -40.3848,
		"capital": false
	},
	{
		"estado": "ES",
		"cidade": "Laranja da Terra",
		"lat": -19.8991,
		"long": -41.0539,
		"capital": false
	},
	{
		"estado": "ES",
		"cidade": "Linhares",
		"lat": -19.3983,
		"long": -40.0654,
		"capital": true
	},
	{
		"estado": "ES",
		"cidade": "Mantenópolis",
		"lat": -18.865,
		"long": -41.1208,
		"capital": false
	},
	{
		"estado": "ES",
		"cidade": "Marataízes",
		"lat": -21.0469,
		"long": -40.8305,
		"capital": false
	},
	{
		"estado": "ES",
		"cidade": "Marechal Floriano",
		"lat": -20.4178,
		"long": -40.6823,
		"capital": false
	},
	{
		"estado": "ES",
		"cidade": "Marilândia",
		"lat": -19.4118,
		"long": -40.5444,
		"capital": false
	},
	{
		"estado": "ES",
		"cidade": "Mimoso do Sul",
		"lat": -21.067,
		"long": -41.3696,
		"capital": false
	},
	{
		"estado": "ES",
		"cidade": "Montanha",
		"lat": -18.1251,
		"long": -40.3623,
		"capital": false
	},
	{
		"estado": "ES",
		"cidade": "Mucurici",
		"lat": -18.0803,
		"long": -40.5648,
		"capital": false
	},
	{
		"estado": "ES",
		"cidade": "Muniz Freire",
		"lat": -20.4649,
		"long": -41.4153,
		"capital": false
	},
	{
		"estado": "ES",
		"cidade": "Muqui",
		"lat": -20.956,
		"long": -41.3531,
		"capital": false
	},
	{
		"estado": "ES",
		"cidade": "Nova Venécia",
		"lat": -18.7061,
		"long": -40.3971,
		"capital": false
	},
	{
		"estado": "ES",
		"cidade": "Pancas",
		"lat": -19.2279,
		"long": -40.8512,
		"capital": false
	},
	{
		"estado": "ES",
		"cidade": "Pedro Canário",
		"lat": -18.300418,
		"long": -39.957365,
		"capital": false
	},
	{
		"estado": "ES",
		"cidade": "Pinheiros",
		"lat": -18.4068,
		"long": -40.2238,
		"capital": false
	},
	{
		"estado": "ES",
		"cidade": "Piúma",
		"lat": -20.8374,
		"long": -40.7275,
		"capital": false
	},
	{
		"estado": "ES",
		"cidade": "Ponto Belo",
		"lat": -18.1318,
		"long": -40.5431,
		"capital": false
	},
	{
		"estado": "ES",
		"cidade": "Presidente Kennedy",
		"lat": -21.1014,
		"long": -41.0552,
		"capital": false
	},
	{
		"estado": "ES",
		"cidade": "Rio Bananal",
		"lat": -19.2629,
		"long": -40.3339,
		"capital": false
	},
	{
		"estado": "ES",
		"cidade": "Rio Novo do Sul",
		"lat": -20.8641,
		"long": -40.9384,
		"capital": false
	},
	{
		"estado": "ES",
		"cidade": "Santa Leopoldina",
		"lat": -20.0986,
		"long": -40.5385,
		"capital": false
	},
	{
		"estado": "ES",
		"cidade": "Santa Maria de Jetibá",
		"lat": -20.0498,
		"long": -40.7422,
		"capital": false
	},
	{
		"estado": "ES",
		"cidade": "Santa Teresa",
		"lat": -19.9497,
		"long": -40.6059,
		"capital": false
	},
	{
		"estado": "ES",
		"cidade": "São Domingos do Norte",
		"lat": -19.1368,
		"long": -40.6227,
		"capital": false
	},
	{
		"estado": "ES",
		"cidade": "São Gabriel da Palha",
		"lat": -19.0117,
		"long": -40.5354,
		"capital": false
	},
	{
		"estado": "ES",
		"cidade": "São José do Calçado",
		"lat": -21.0346,
		"long": -41.6586,
		"capital": false
	},
	{
		"estado": "ES",
		"cidade": "São Mateus",
		"lat": -18.7153,
		"long": -39.8487,
		"capital": true
	},
	{
		"estado": "ES",
		"cidade": "São Roque do Canaã",
		"lat": -19.7381,
		"long": -40.6559,
		"capital": false
	},
	{
		"estado": "ES",
		"cidade": "Serra",
		"lat": -20.1291,
		"long": -40.3026,
		"capital": false
	},
	{
		"estado": "ES",
		"cidade": "Sooretama",
		"lat": -19.1901,
		"long": -40.1006,
		"capital": false
	},
	{
		"estado": "ES",
		"cidade": "Vargem Alta",
		"lat": -20.6742,
		"long": -41.0106,
		"capital": false
	},
	{
		"estado": "ES",
		"cidade": "Venda Nova do Imigrante",
		"lat": -20.3345,
		"long": -41.1348,
		"capital": false
	},
	{
		"estado": "ES",
		"cidade": "Viana",
		"lat": -20.3944,
		"long": -40.506,
		"capital": false
	},
	{
		"estado": "ES",
		"cidade": "Vila Pavão",
		"lat": -18.6115,
		"long": -40.6102,
		"capital": false
	},
	{
		"estado": "ES",
		"cidade": "Vila Valério",
		"lat": -18.9911,
		"long": -40.3862,
		"capital": false
	},
	{
		"estado": "ES",
		"cidade": "Vila Velha",
		"lat": -20.3628,
		"long": -40.2989,
		"capital": false
	},
	{
		"estado": "ES",
		"cidade": "Vitória",
		"lat": -20.2833,
		"long": -40.3078,
		"capital": true
	},
	{
		"estado": "GO",
		"cidade": "Abadia de Goiás",
		"lat": -16.7572644,
		"long": -49.4412205,
		"capital": false
	},
	{
		"estado": "GO",
		"cidade": "Abadiânia",
		"lat": -16.1947225,
		"long": -48.7068117,
		"capital": false
	},
	{
		"estado": "GO",
		"cidade": "Acreúna",
		"lat": -17.3959899,
		"long": -50.3749031,
		"capital": false
	},
	{
		"estado": "GO",
		"cidade": "Adelândia",
		"lat": -16.4126999,
		"long": -50.165699,
		"capital": false
	},
	{
		"estado": "GO",
		"cidade": "Água Fria de Goiás",
		"lat": -14.9778369,
		"long": -47.7822901,
		"capital": false
	},
	{
		"estado": "GO",
		"cidade": "Água Limpa",
		"lat": -18.0770819,
		"long": -48.760304,
		"capital": false
	},
	{
		"estado": "GO",
		"cidade": "Águas Lindas de Goiás",
		"lat": -15.7392283,
		"long": -48.2793357,
		"capital": false
	},
	{
		"estado": "GO",
		"cidade": "Alexânia",
		"lat": -16.0834049,
		"long": -48.5077803,
		"capital": false
	},
	{
		"estado": "GO",
		"cidade": "Aloândia",
		"lat": -17.7291969,
		"long": -49.4768951,
		"capital": false
	},
	{
		"estado": "GO",
		"cidade": "Alto Horizonte",
		"lat": -14.1978109,
		"long": -49.3378361,
		"capital": false
	},
	{
		"estado": "GO",
		"cidade": "Alto Paraíso de Goiás",
		"lat": -14.1304779,
		"long": -47.5100161,
		"capital": false
	},
	{
		"estado": "GO",
		"cidade": "Alvorada do Norte",
		"lat": -14.4796879,
		"long": -46.4910361,
		"capital": false
	},
	{
		"estado": "GO",
		"cidade": "Amaralina",
		"lat": -13.9236199,
		"long": -49.2962411,
		"capital": false
	},
	{
		"estado": "GO",
		"cidade": "Americano do Brasil",
		"lat": -16.2514489,
		"long": -49.9831291,
		"capital": false
	},
	{
		"estado": "GO",
		"cidade": "Amorinópolis",
		"lat": -16.6203355,
		"long": -51.0940132,
		"capital": false
	},
	{
		"estado": "GO",
		"cidade": "Anápolis",
		"lat": -16.3338602,
		"long": -48.9519526,
		"capital": false
	},
	{
		"estado": "GO",
		"cidade": "Anhanguera",
		"lat": -18.3338749,
		"long": -48.220363,
		"capital": false
	},
	{
		"estado": "GO",
		"cidade": "Anicuns",
		"lat": -16.4641639,
		"long": -49.9616951,
		"capital": false
	},
	{
		"estado": "GO",
		"cidade": "Aparecida de Goiânia",
		"lat": -16.8226743,
		"long": -49.2452546,
		"capital": false
	},
	{
		"estado": "GO",
		"cidade": "Aparecida do Rio Doce",
		"lat": -18.2969359,
		"long": -51.1457831,
		"capital": false
	},
	{
		"estado": "GO",
		"cidade": "Aporé",
		"lat": -18.9607289,
		"long": -51.9231841,
		"capital": false
	},
	{
		"estado": "GO",
		"cidade": "Araçu",
		"lat": -16.3563059,
		"long": -49.6804241,
		"capital": false
	},
	{
		"estado": "GO",
		"cidade": "Aragarças",
		"lat": -15.8954599,
		"long": -52.2372311,
		"capital": false
	},
	{
		"estado": "GO",
		"cidade": "Aragoiânia",
		"lat": -16.9146388,
		"long": -49.4499148,
		"capital": false
	},
	{
		"estado": "GO",
		"cidade": "Araguapaz",
		"lat": -15.0908529,
		"long": -50.6315111,
		"capital": false
	},
	{
		"estado": "GO",
		"cidade": "Arenópolis",
		"lat": -16.3837259,
		"long": -51.5562801,
		"capital": false
	},
	{
		"estado": "GO",
		"cidade": "Aruanã",
		"lat": -14.9166039,
		"long": -51.075008,
		"capital": false
	},
	{
		"estado": "GO",
		"cidade": "Aurilândia",
		"lat": -16.6772599,
		"long": -50.4641231,
		"capital": false
	},